~VERSION INFORMATION
VERS.                  2.0 : CWLS LOG ASCII STANDARD VERSION 2.0
WRAP.                  NO  : DATA IS NOT WRAPPED
~Well Information Section
#MNEM.UNIT          VALUE/NAME                 DESCRIPTION
#----------------------------------------------------------------------
STRT.m                 158.9532 : START DEPTH
STOP.m                3049.2192 : STOP DEPTH
STEP.m                   0.1524 : STEP
NULL.                -999.25 : NULL VALUE
COMP.                                             : COMPANY
WELL.    Z-Zim-1                                  : WELL
FLD .                                             : FIELD
LOC .             500001,       6637623.6         : LOCATION
CNTY.                                             : COUNTY
STAT.                                             : STATE
CTRY.                                             : COUNTRY
SRVC.    Fugro-Jason                              : SERVICE
DATE.                                             : DATE
API .                                             : API
~Curve Information Section
#MNEM.UNIT          API CODE                   DESCRIPTION
#----------------------------------------------------------------------
DEPTH.m                          : * MD (TRACK/INDEX)
TVD  .m                          : * TVD (TRACK/INDEX)
TVDSS.m                          : * TVDSS (TRACK/INDEX)
DX   .m                          : TRACK DELTA X-COORD
DY   .m                          : TRACK DELTA Y-COORD
DTS  .s/m                        : S-SONIC
DT   .s/m                        : P-SONIC
RHOB .kg/m^3                     : DENSITY
~Parameter Information Section
#MNEM.UNIT          API CODE                   DESCRIPTION
#----------------------------------------------------------------------
XCRD .m                500001.000            : WELL POSITION X-COORD
YCRD .m                6637623.600           : WELL POSITION Y-COORD
DATUM.m                45.430                : WELL DATUM
~Other Information Section
#----------------------------------------------------------------------
# Data exported from JGW, (C) Fugro-Jason, 2011
# Input file: 02_WELL/Z-Zim-1.wll
#----------------------------------------------------------------------
~A DEPTH        TVD            TVDSS          DELTAX         DELTAY         DTS            DT             RHOB           
# ...
1118.7684      1118.7444      1073.3144      3.3726105      3.907537       0.00084889401  0.00040052101  2185.6767      
1118.9208      1118.8968      1073.4668      3.3735249      3.9078418      0.00084889401  0.00040052101  2167.9103      
1119.0732      1119.0492      1073.6192      3.3744393      3.9081466      0.00084889462  0.00040052101  2145.9302      
1119.2256      1119.2016      1073.7716      3.3753537      3.9084514      0.00084889697  0.00040052199  2125.7109      
1119.3780      1119.3540      1073.9240      3.3762681      3.9087562      0.00084887037  0.00040051329  2138.4445      
1119.5304      1119.5064      1074.0764      3.3771825      3.909061       0.00084759571  0.00040009598  2158.5167      
1119.6828      1119.6588      1074.2288      3.3780969      3.9093658      0.00084486028  0.00039919523  2173.0171      
1119.8352      1119.8112      1074.3812      3.3790113      3.9096706      0.00084004825  0.00039760225  2182.8729      
1119.9876      1119.9636      1074.5336      3.3799257      3.9099754      0.00083489962  0.00039588007  2175.6901      
1120.1400      1120.1160      1074.6860      3.3807001      3.9104202      0.00082924882  0.0003939688   2194.9839      
1120.2924      1120.2684      1074.8384      3.3814621      3.9108774      0.00082465547  0.00039239923  2199.293       
1120.4448      1120.4208      1074.9908      3.3822241      3.9113346      0.00082091168  0.00039111134  2188.6271      
1120.5972      1120.5732      1075.1432      3.3829861      3.9117918      0.00081937864  0.00039058022  2173.8641      
1120.7496      1120.7256      1075.2956      3.3837481      3.912249       0.00081916997  0.00039050801  2187.4343      
1120.9020      1120.8780      1075.4480      3.3845101      3.9127062      0.00081916997  0.00039050801  2190.947       
1121.0544      1121.0304      1075.6004      3.3852721      3.9131634      0.00081916997  0.00039050801  2180.4847      
1121.2068      1121.1828      1075.7528      3.3860341      3.9136206      0.00081913784  0.00039049677  2156.4718      
1121.3592      1121.3352      1075.9052      3.3867961      3.9140778      0.00081892251  0.00039042178  2144.7483      
1121.5116      1121.4876      1076.0576      3.3875581      3.914535       0.00081680769  0.00038968436  2161.6602      
1121.6640      1121.6400      1076.2100      3.3883201      3.9149922      0.00081471029  0.00038895155  2164.7117      
1121.8164      1121.7924      1076.3624      3.3890821      3.9154494      0.00081347898  0.00038851917  2145.2705      
1121.9688      1121.9448      1076.5148      3.3898441      3.9159066      0.00081407718  0.00038872955  2191.8391      
1122.1212      1122.0972      1076.6672      3.3906061      3.9163638      0.00081081744  0.00038757825  2201.7104      
1122.2736      1122.2496      1076.8196      3.3913681      3.916821       0.00080523742  0.00038558544  2201           
1122.4260      1122.4020      1076.9720      3.3921301      3.9172782      0.00079620494  0.00038232828  2191.0283      
1122.5784      1122.5544      1077.1244      3.3928921      3.9177354      0.00079041455  0.00038020109  2148.5493      
1122.7308      1122.7068      1077.2768      3.3936541      3.9181926      0.00078862103  0.00037954015  2161.3028      
1122.8832      1122.8592      1077.4292      3.3944161      3.9186498      0.00078836065  0.0003794434   2168.6377      
1123.0356      1123.0115      1077.5815      3.3951781      3.9191069      0.00078768037  0.00037918955  2162.3778      
1123.1880      1123.1639      1077.7339      3.3959401      3.9195641      0.00078472063  0.00037808455  2157.2539      
1123.3404      1123.3163      1077.8863      3.3967021      3.9200213      0.00078092222  0.00037665521  2161.2537      
1123.4928      1123.4687      1078.0387      3.3974641      3.9204785      0.00077897727  0.00037592055  2189.2322      
1123.6452      1123.6211      1078.1911      3.3982261      3.9209357      0.00077858548  0.00037577185  2213.7773      
1123.7976      1123.7735      1078.3435      3.3989881      3.9213929      0.00077950402  0.00037612015  2191.3524      
1123.9500      1123.9259      1078.4959      3.3997501      3.9218501      0.00077732172  0.00037529073  2191.9377      
1124.1024      1124.0783      1078.6483      3.4005121      3.9223073      0.00077439536  0.00037417115  2312.4688      
1124.2548      1124.2307      1078.8007      3.4012741      3.9227645      0.00077471007  0.00037428686  2401.265       
1124.4072      1124.3831      1078.9531      3.4020361      3.9232217      0.00078294336  0.00037740305  2323.6305      
1124.5596      1124.5355      1079.1055      3.4027981      3.9236789      0.00079614024  0.00038228684  2234.5451      
1124.7120      1124.6879      1079.2579      3.4035601      3.9241361      0.00080907312  0.0003869412   2177.8829      
1124.8644      1124.8403      1079.4103      3.4043221      3.9245933      0.00081502725  0.00038906262  2162.2463      
1125.0168      1124.9927      1079.5627      3.4050841      3.9250505      0.00081121359  0.00038770197  2186.7473      
1125.1692      1125.1451      1079.7151      3.4058461      3.9255077      0.00079657587  0.0003824445   2236.504       
1125.3216      1125.2975      1079.8675      3.4066081      3.9259649      0.00076903415  0.00037197099  2351.1303      
1125.4740      1125.4499      1080.0199      3.4073701      3.9264221      0.00074184161  0.00036098672  2502.2269      
1125.6264      1125.6023      1080.1723      3.4081321      3.9268793      0.00070548961  0.00034523976  2697.1797      
1125.7788      1125.7547      1080.3247      3.4088941      3.9273365      0.00067520936  0.00033081115  2699.5801      
1125.9312      1125.9071      1080.4771      3.4096561      3.9277937      0.00064614671  0.00031567006  2663.9005      
1126.0836      1126.0595      1080.6295      3.4104181      3.9282509      0.00063672892  0.00031065674  2523.6325      
1126.2360      1126.2119      1080.7819      3.4111801      3.9287081      0.00064240335  0.00031371597  2297.6939      
1126.3884      1126.3643      1080.9343      3.4119421      3.9291653      0.00066595272  0.00032595076  2186.4096      
1126.5408      1126.5167      1081.0867      3.4127041      3.9296225      0.00073434399  0.00035704825  2133.1983      
1126.6932      1126.6691      1081.2391      3.4134661      3.9300796      0.00079022003  0.00037971158  2132.7271      
1126.8456      1126.8215      1081.3915      3.4142281      3.9305368      0.00083693965  0.00039644428  2153.242       
1126.9980      1126.9738      1081.5438      3.4149901      3.930994       0.00086754292  0.00040643097  2171.9119      
1127.1504      1127.1262      1081.6962      3.4157521      3.9314512      0.00085224613  0.00040156811  2207.3467      
1127.3028      1127.2786      1081.8486      3.4165141      3.9319084      0.00085673179  0.00040302718  2259.2218      
1127.4552      1127.4310      1082.0010      3.4172761      3.9323656      0.00085649087  0.00040287845  2278.0639      
1127.6076      1127.5834      1082.1534      3.4180381      3.9328228      0.00083053799  0.00039435482  2229.7302      
1127.7600      1127.7358      1082.3058      3.4188001      3.93328        0.00084855742  0.00040036668  2217.3232      
1127.9124      1127.8882      1082.4582      3.4195621      3.9337372      0.00082752572  0.00039320723  2218.5026      
1128.0648      1128.0406      1082.6106      3.4203241      3.9341944      0.00080739636  0.00038636615  2209.0146      
1128.2172      1128.1930      1082.7630      3.4210861      3.9346516      0.00080550987  0.00038569314  2179.6112      
1128.3696      1128.3454      1082.9154      3.4218481      3.9351088      0.00080780373  0.00038651151  2175.646       
1128.5220      1128.4978      1083.0678      3.4226101      3.935566       0.00081305846  0.00038836688  2197.125       
1128.6744      1128.6502      1083.2202      3.4233721      3.9360232      0.00081797313  0.00039008738  2181.794       
1128.8268      1128.8026      1083.3726      3.4241341      3.9364804      0.00082405955  0.00039219555  2134.3155      
