~VERSION INFORMATION
VERS.                  2.0 : CWLS LOG ASCII STANDARD VERSION 2.0
WRAP.                  NO  : DATA IS NOT WRAPPED
~Well Information Section
#MNEM.UNIT          VALUE/NAME                 DESCRIPTION
#----------------------------------------------------------------------
STRT.m                 158.9532 : START DEPTH
STOP.m                3049.2192 : STOP DEPTH
STEP.m                   0.1524 : STEP
NULL.                -999.25 : NULL VALUE
COMP.                                             : COMPANY
WELL.    Z-Zim-1                                  : WELL
FLD .                                             : FIELD
LOC .             500001,       6637623.6         : LOCATION
CNTY.                                             : COUNTY
STAT.                                             : STATE
CTRY.                                             : COUNTRY
SRVC.    Fugro-Jason                              : SERVICE
DATE.                                             : DATE
API .                                             : API
~Curve Information Section
#MNEM.UNIT          API CODE                   DESCRIPTION
#----------------------------------------------------------------------
DEPTH.m                          : * MD (TRACK/INDEX)
TVD  .m                          : * TVD (TRACK/INDEX)
TVDSS.m                          : * TVDSS (TRACK/INDEX)
DX   .m                          : TRACK DELTA X-COORD
DY   .m                          : TRACK DELTA Y-COORD
DTS  .s/m                        : S-SONIC
DT   .s/m                        : P-SONIC
RHOB .kg/m^3                     : DENSITY
~Parameter Information Section
#MNEM.UNIT          API CODE                   DESCRIPTION
#----------------------------------------------------------------------
XCRD .m                500001.000            : WELL POSITION X-COORD
YCRD .m                6637623.600           : WELL POSITION Y-COORD
DATUM.m                45.430                : WELL DATUM
~Other Information Section
#----------------------------------------------------------------------
# Data exported from JGW, (C) Fugro-Jason, 2011
# Input file: 02_WELL/Z-Zim-1.wll
#----------------------------------------------------------------------
~A DEPTH        TVD            TVDSS          DELTAX         DELTAY         DTS            DT             RHOB           
# ...
2844.3936      2844.0089      2798.5789      17.98952       8.5119682      0.00044979211  0.00024362611  2459.5038      
2844.5460      2844.1609      2798.7309      18.00095       8.5127302      0.00045418019  0.00024556325  2450.6112      
2844.6984      2844.3128      2798.8828      18.01238       8.5134922      0.0004583896   0.00024741595  2445.656       
2844.8508      2844.4648      2799.0348      18.02381       8.5142542      0.00046201307  0.00024900824  2458.7917      
2845.0032      2844.6168      2799.1868      18.03524       8.5150162      0.00046346428  0.00024964443  2515.917       
2845.1556      2844.7688      2799.3388      18.04667       8.5157782      0.00045964089  0.00024796645  2567.5028      
2845.3080      2844.9207      2799.4907      18.0581        8.5165403      0.00045246413  0.00024480382  2577.2323      
2845.4604      2845.0727      2799.6427      18.06953       8.5173023      0.00046153047  0.00024416915  2572.809       
2845.6128      2845.2247      2799.7947      18.08096       8.5180643      0.00049663902  0.0002501718   2559.3456      
2845.7652      2845.3766      2799.9466      18.09239       8.5188263      0.00049888302  0.00026397041  2528.2307      
2845.9176      2845.5286      2800.0986      18.10382       8.5195883      0.00049888302  0.00028728897  2430.3101      
2846.0700      2845.6806      2800.2506      18.11525       8.5203503      0.00049888302  0.0003113643   2194.5144      
2846.2224      2845.8325      2800.4025      18.12668       8.5211123      0.00049888302  0.00034262434  1839.0004      
2846.3748      2845.9845      2800.5545      18.13811       8.5218743      0.00049888302  0.00036623093  1602.8294      
2846.5272      2846.1365      2800.7065      18.14954       8.5226363      0.00049888302  0.00038478444  1411.6336      
2846.6796      2846.2884      2800.8584      18.16097       8.5233983      0.00049888302  0.00039028222  1265.8844      
2846.8320      2846.4404      2801.0104      18.1724        8.5241603      0.00049888302  0.0003852633   1172.4034      
2846.9844      2846.5924      2801.1624      18.18383       8.5249223      0.00049888302  0.00036755643  1247.4334      
2847.1368      2846.7443      2801.3143      18.19526       8.5256843      0.00049888302  0.00034025164  1543.9645      
2847.2892      2846.8963      2801.4663      18.20669       8.5264463      0.00049987885  0.0003160731   2054.9382      
2847.4416      2847.0483      2801.6183      18.21812       8.5272083      0.00050121598  0.00029296661  2409.7087      
2847.5940      2847.2002      2801.7702      18.22955       8.5279703      0.00050121598  0.00027845008  2485.1836      
2847.7464      2847.3522      2801.9222      18.24098       8.5287323      0.00050121598  0.00027184629  2436.4429      
2847.8988      2847.5042      2802.0742      18.25241       8.5294943      0.00050121598  0.00027337679  2396.5516      
2848.0512      2847.6562      2802.2262      18.26384       8.5302563      0.00050231022  0.00028082801  2444.5556      
2848.2036      2847.8081      2802.3781      18.27527       8.5310183      0.00050554572  0.00029540184  2495.4217      
2848.3560      2847.9601      2802.5301      18.2867        8.5317803      0.00050589198  0.00031601336  2516.4463      
2848.5084      2848.1121      2802.6821      18.29813       8.5325423      0.00050589198  0.00034088475  2469.0131      
2848.6608      2848.2640      2802.8340      18.30956       8.5333043      0.00050589198  0.0003634406   2295.572       
2848.8132      2848.4160      2802.9860      18.32099       8.5340663      0.00050589198  0.00038479822  1853.0982      
2848.9656      2848.5680      2803.1380      18.33242       8.5348283      0.00050589198  0.0004000328   1452.0032      
2849.1180      2848.7199      2803.2899      18.34385       8.5355903      0.00050589198  0.00041095185  1161.9394      
2849.2704      2848.8719      2803.4419      18.35528       8.5363523      0.00050589198  0.00041604107  1140.2192      
2849.4228      2849.0239      2803.5939      18.36671       8.5371143      0.00050654096  0.00041783064  1151.4316      
2849.5752      2849.1758      2803.7458      18.37814       8.5378763      0.00050990426  0.00041800133  1158.3038      
2849.7276      2849.3278      2803.8978      18.38957       8.5386383      0.00051058101  0.00041798357  1156.1697      
2849.8800      2849.4798      2804.0498      18.401         8.5394003      0.00051058101  0.00041752154  1147.6003      
2850.0324      2849.6317      2804.2017      18.412462      8.5400975      0.00051058101  0.00041617766  1144.2788      
2850.1848      2849.7837      2804.3537      18.424045      8.5405547      0.00051058101  0.00041392326  1139.8075      
2850.3372      2849.9357      2804.5057      18.435627      8.5410119      0.00051058101  0.0004125939   1143.4427      
2850.4896      2850.0876      2804.6576      18.447209      8.5414691      0.00051058101  0.00041349504  1181.6751      
2850.6420      2850.2396      2804.8096      18.458792      8.5419263      0.00051058101  0.00041599617  1263.4765      
2850.7944      2850.3915      2804.9615      18.470374      8.5423835      0.00051026485  0.00041866336  1279.0537      
2850.9468      2850.5435      2805.1135      18.481957      8.5428407      0.00050702423  0.00042086848  1235.1385      
2851.0992      2850.6955      2805.2655      18.493539      8.5432979      0.00050589198  0.00042258443  1146.8625      
2851.2516      2850.8474      2805.4174      18.505121      8.5437551      0.00050589198  0.00042271595  1132.8954      
2851.4040      2850.9994      2805.5694      18.516704      8.5442123      0.00050589198  0.00041840079  1137.2587      
2851.5564      2851.1514      2805.7213      18.528286      8.5446695      0.00050589198  0.00040654042  1155.4752      
2851.7088      2851.3033      2805.8733      18.539869      8.5451267      0.00050589198  0.00038648432  1208.6051      
2851.8612      2851.4553      2806.0253      18.551451      8.5455839      0.00050462235  0.00036396377  1319.8727      
2852.0136      2851.6072      2806.1772      18.563033      8.5460411      0.00050140959  0.00033613469  1516.2659      
2852.1660      2851.7592      2806.3292      18.574616      8.5464983      0.00050121598  0.00031063465  1761.4273      
2852.3184      2851.9112      2806.4812      18.586198      8.5469555      0.00050121598  0.00028496418  2127.6091      
2852.4708      2852.0631      2806.6331      18.597781      8.5474127      0.00050121598  0.00026761856  2458.6802      
2852.6232      2852.2151      2806.7851      18.609363      8.5478699      0.00050121598  0.0002538275   2542.4379      
2852.7756      2852.3670      2806.9370      18.620946      8.5483271      0.00050121598  0.0002483553   2553.4319      
2852.9280      2852.5190      2807.0890      18.632528      8.5487843      0.00050121598  0.00024344914  2566.1742      
2853.0804      2852.6710      2807.2410      18.64411       8.5492415      0.00047498341  0.00023908915  2574.4022      
2853.2328      2852.8229      2807.3929      18.655693      8.5496987      0.00042672546  0.000233443    2574.2117      
2853.3852      2852.9749      2807.5449      18.667275      8.5501559      0.00041724097  0.00022908239  2583.4485      
2853.5376      2853.1268      2807.6968      18.678858      8.550613       0.00040953719  0.00022559705  2631.9181      
2853.6900      2853.2788      2807.8488      18.69044       8.5510702      0.00040605546  0.00022401714  2751.3073      
2853.8424      2853.4308      2808.0008      18.702022      8.5515274      0.00040667531  0.00022429652  2825.3461      
2853.9948      2853.5827      2808.1527      18.713605      8.5519846      0.00041464336  0.00022790756  2742.6837      
2854.1472      2853.7347      2808.3047      18.725187      8.5524418      0.00042766839  0.00023376957  2609.7659      
2854.2996      2853.8866      2808.4566      18.73677       8.552899       0.00043940467  0.00023901196  2574.6934      
2854.4520      2854.0386      2808.6086      18.748352      8.5533562      0.00044888796  0.00024322524  2577.9837      
