~VERSION INFORMATION
VERS.                  2.0 : CWLS LOG ASCII STANDARD VERSION 2.0
WRAP.                  NO  : DATA IS NOT WRAPPED
~Well Information Section
#MNEM.UNIT          VALUE/NAME                 DESCRIPTION
#----------------------------------------------------------------------
STRT.m                 158.9532 : START DEPTH
STOP.m                3049.2192 : STOP DEPTH
STEP.m                   0.1524 : STEP
NULL.                -999.25 : NULL VALUE
COMP.                                             : COMPANY
WELL.    Z-Zim-1                                  : WELL
FLD .                                             : FIELD
LOC .             500001,       6637623.6         : LOCATION
CNTY.                                             : COUNTY
STAT.                                             : STATE
CTRY.                                             : COUNTRY
SRVC.    Fugro-Jason                              : SERVICE
DATE.                                             : DATE
API .                                             : API
~Curve Information Section
#MNEM.UNIT          API CODE                   DESCRIPTION
#----------------------------------------------------------------------
DEPTH.m                          : * MD (TRACK/INDEX)
TVD  .m                          : * TVD (TRACK/INDEX)
TVDSS.m                          : * TVDSS (TRACK/INDEX)
DX   .m                          : TRACK DELTA X-COORD
DY   .m                          : TRACK DELTA Y-COORD
DTS  .s/m                        : S-SONIC
DT   .s/m                        : P-SONIC
RHOB .kg/m^3                     : DENSITY
~Parameter Information Section
#MNEM.UNIT          API CODE                   DESCRIPTION
#----------------------------------------------------------------------
XCRD .m                500001.000            : WELL POSITION X-COORD
YCRD .m                6637623.600           : WELL POSITION Y-COORD
DATUM.m                45.430                : WELL DATUM
~Other Information Section
#----------------------------------------------------------------------
# Data exported from JGW, (C) Fugro-Jason, 2011
# Input file: 02_WELL/Z-Zim-1.wll
#----------------------------------------------------------------------
~A DEPTH        TVD            TVDSS          DELTAX         DELTAY         DTS            DT             RHOB           
# ...
1506.7788      1506.7486      1461.3186      3.04           5.6803364      0.00082244579  0.00036999291  2404.846       
1506.9312      1506.9010      1461.4710      3.04           5.6807936      0.00081971445  0.00036907163  2477.0728      
1507.0836      1507.0534      1461.6234      3.04           5.6812508      0.00081607634  0.00036783062  2453.7685      
1507.2360      1507.2058      1461.7758      3.04           5.681708       0.00081015134  0.00036579535  2391.3074      
1507.3884      1507.3582      1461.9282      3.04           5.6821652      0.00080496526  0.0003639906   2379.7457      
1507.5408      1507.5106      1462.0806      3.04           5.6826224      0.00079926393  0.00036198173  2392.0929      
1507.6932      1507.6630      1462.2330      3.04           5.6830796      0.00079626934  0.00036092007  2371.3737      
1507.8456      1507.8154      1462.3854      3.04           5.6835368      0.00079498999  0.00036046299  2362.9666      
1507.9980      1507.9678      1462.5378      3.04           5.683994       0.00079536212  0.00036059545  2400.9314      
1508.1504      1508.1202      1462.6902      3.04           5.6844512      0.0007985091   0.00036171596  2435.5912      
1508.3028      1508.2726      1462.8426      3.04           5.6849084      0.00080213023  0.00036299651  2409.7825      
1508.4552      1508.4250      1462.9950      3.04           5.6853656      0.00080631203  0.00036446048  2374.0994      
1508.6076      1508.5774      1463.1474      3.04           5.6858228      0.00081146417  0.00036625037  2380.3028      
1508.7600      1508.7298      1463.2998      3.04           5.68628        0.00081351261  0.00036695659  2393.5771      
1508.9124      1508.8822      1463.4522      3.04           5.6867372      0.00081546866  0.00036762712  2394.483       
1509.0648      1509.0346      1463.6046      3.04           5.6871944      0.00081648998  0.000367976    2387.1439      
1509.2172      1509.1870      1463.7570      3.04           5.6876516      0.00081678994  0.00036807811  2361.5638      
1509.3696      1509.3394      1463.9094      3.04           5.6881088      0.00081847558  0.00036865182  2351.231       
1509.5220      1509.4918      1464.0618      3.04           5.688566       0.00082052097  0.00036934466  2359.8688      
1509.6744      1509.6442      1464.2142      3.04           5.6890232      0.00082304253  0.00037019418  2350.766       
1509.8268      1509.7966      1464.3666      3.04           5.6894804      0.00082682793  0.00037146394  2353.0229      
1509.9792      1509.9490      1464.5190      3.04           5.6899376      0.00082855458  0.00037203876  2360.0602      
1510.1316      1510.1014      1464.6714      3.0401316      5.690658       0.00083236614  0.00037329928  2370.9355      
1510.2840      1510.2538      1464.8238      3.040284       5.69142        0.00083492923  0.00037414307  2378.3435      
1510.4364      1510.4062      1464.9762      3.0404364      5.692182       0.00083700282  0.00037482265  2395.8489      
1510.5888      1510.5586      1465.1286      3.0405888      5.692944       0.00083885791  0.000375427    2384.2513      
1510.7412      1510.7110      1465.2810      3.0407412      5.693706       0.00084089266  0.00037608744  2365.3503      
1510.8936      1510.8634      1465.4334      3.0408936      5.694468       0.00084279908  0.00037670308  2385.3561      
1511.0460      1511.0158      1465.5858      3.041046       5.69523        0.0008448203   0.00037735474  2438.9197      
1511.1984      1511.1682      1465.7382      3.0411984      5.695992       0.0008465627   0.00037791351  2435.4695      
1511.3508      1511.3206      1465.8906      3.0413508      5.696754       0.00084679201  0.00037798699  2393.2744      
1511.5032      1511.4730      1466.0430      3.0415032      5.697516       0.00083877024  0.00037537831  2343.2992      
1511.6556      1511.6254      1466.1954      3.0416556      5.698278       0.00082739498  0.00037163913  2375.9674      
1511.8080      1511.7778      1466.3478      3.041808       5.69904        0.00081525726  0.00036753641  2392.2011      
1511.9604      1511.9302      1466.5002      3.0419604      5.699802       0.00080119519  0.00036264696  2404.3205      
1512.1128      1512.0826      1466.6526      3.0421128      5.700564       0.00079461786  0.00036032715  2424.3574      
1512.2652      1512.2350      1466.8050      3.0422652      5.701326       0.00079129478  0.00035913287  2411.4991      
1512.4176      1512.3874      1466.9574      3.0424176      5.702088       0.00078819682  0.00035801198  2388.3031      
1512.5700      1512.5398      1467.1098      3.04257        5.70285        0.000788067    0.00035796501  2357.2517      
1512.7224      1512.6922      1467.2622      3.0427224      5.703612       0.000788067    0.00035796501  2327.739       
1512.8748      1512.8446      1467.4146      3.0428748      5.704374       0.000788067    0.00035796501  2384.2536      
1513.0272      1512.9970      1467.5670      3.0430272      5.705136       0.000788067    0.00035796501  2374.1093      
1513.1796      1513.1494      1467.7194      3.0431796      5.705898       0.000788067    0.00035796501  2373.3747      
1513.3320      1513.3018      1467.8718      3.043332       5.70666        0.000788067    0.00035796501  2392.0075      
1513.4844      1513.4542      1468.0242      3.0434844      5.707422       0.00079358295  0.00035993888  2398.9443      
1513.6368      1513.6066      1468.1766      3.0436368      5.708184       0.00080502731  0.0003640041   2387.9194      
1513.7892      1513.7589      1468.3289      3.0437892      5.708946       0.00081548754  0.0003676214   2371.6162      
1513.9416      1513.9113      1468.4813      3.0439416      5.709708       0.00082751001  0.0003716763   2364.9569      
1514.0940      1514.0637      1468.6337      3.044094       5.71047        0.00083023434  0.00037259642  2394.0296      
1514.2464      1514.2161      1468.7861      3.0442464      5.711232       0.00082827309  0.00037194522  2399.4454      
1514.3988      1514.3685      1468.9385      3.0443988      5.711994       0.00082619227  0.00037125107  2409.846       
1514.5512      1514.5209      1469.0909      3.0445512      5.712756       0.00082259448  0.00037004384  2418.5965      
1514.7036      1514.6733      1469.2433      3.0447036      5.7135181      0.00082010995  0.00036920551  2411.8078      
1514.8560      1514.8257      1469.3957      3.044856       5.7142801      0.0008176379   0.00036836536  2391.2471      
1515.0084      1514.9781      1469.5481      3.0450084      5.7150421      0.00081403864  0.0003671367   2406.1412      
1515.1608      1515.1305      1469.7005      3.0451608      5.7158041      0.00081214236  0.00036648529  2413.7959      
1515.3132      1515.2829      1469.8529      3.0453132      5.7165661      0.00081019595  0.00036581331  2390.5227      
1515.4656      1515.4353      1470.0053      3.0454656      5.7173281      0.00080919999  0.00036546899  2385.0464      
1515.6180      1515.5877      1470.1577      3.045618       5.7180901      0.00080950319  0.00036557382  2388.9788      
1515.7704      1515.7401      1470.3101      3.0457704      5.7188521      0.00081118029  0.00036615367  2385.8643      
1515.9228      1515.8925      1470.4625      3.0459228      5.7196141      0.0008131869   0.0003668445   2366.0897      
1516.0752      1516.0449      1470.6149      3.0460752      5.7203761      0.0008156738   0.00036769512  2337.2825      
1516.2276      1516.1973      1470.7673      3.0462276      5.7211381      0.00081938558  0.00036896048  2363.7091      
1516.3800      1516.3497      1470.9197      3.04638        5.7219001      0.00082111588  0.00036954604  2384.2056      
1516.5324      1516.5021      1471.0721      3.0465324      5.7226621      0.00082486549  0.00037080627  2390.9953      
1516.6848      1516.6545      1471.2245      3.0466848      5.7234241      0.0008273748   0.00037164601  2382.2324      
1516.8372      1516.8069      1471.3769      3.0468372      5.7241861      0.00082987614  0.00037247658  2391.9763      
