~VERSION INFORMATION
VERS.                  2.0 : CWLS LOG ASCII STANDARD VERSION 2.0
WRAP.                  NO  : DATA IS NOT WRAPPED
~Well Information Section
#MNEM.UNIT          VALUE/NAME                 DESCRIPTION
#----------------------------------------------------------------------
STRT.m                 158.9532 : START DEPTH
STOP.m                3049.2192 : STOP DEPTH
STEP.m                   0.1524 : STEP
NULL.                -999.25 : NULL VALUE
COMP.                                             : COMPANY
WELL.    Z-Zim-1                                  : WELL
FLD .                                             : FIELD
LOC .             500001,       6637623.6         : LOCATION
CNTY.                                             : COUNTY
STAT.                                             : STATE
CTRY.                                             : COUNTRY
SRVC.    Fugro-Jason                              : SERVICE
DATE.                                             : DATE
API .                                             : API
~Curve Information Section
#MNEM.UNIT          API CODE                   DESCRIPTION
#----------------------------------------------------------------------
DEPTH.m                          : * MD (TRACK/INDEX)
TVD  .m                          : * TVD (TRACK/INDEX)
TVDSS.m                          : * TVDSS (TRACK/INDEX)
DX   .m                          : TRACK DELTA X-COORD
DY   .m                          : TRACK DELTA Y-COORD
DTS  .s/m                        : S-SONIC
DT   .s/m                        : P-SONIC
RHOB .kg/m^3                     : DENSITY
~Parameter Information Section
#MNEM.UNIT          API CODE                   DESCRIPTION
#----------------------------------------------------------------------
XCRD .m                500001.000            : WELL POSITION X-COORD
YCRD .m                6637623.600           : WELL POSITION Y-COORD
DATUM.m                45.430                : WELL DATUM
~Other Information Section
#----------------------------------------------------------------------
# Data exported from JGW, (C) Fugro-Jason, 2011
# Input file: 02_WELL/Z-Zim-1.wll
#----------------------------------------------------------------------
~A DEPTH        TVD            TVDSS          DELTAX         DELTAY         DTS            DT             RHOB           
# ...
2466.5940      2466.5254      2421.0954      5.254632       7.2870299      0.00055755561  0.00030300001  2497.4146      
2466.7464      2466.6778      2421.2478      5.2588992      7.2862679      0.0005599656   0.00030300001  2498.8641      
2466.8988      2466.8301      2421.4001      5.2631664      7.2855059      0.00056323233  0.00030398378  2501.3195      
2467.0512      2466.9824      2421.5524      5.2674336      7.2847439      0.00056716102  0.00030499999  2498.4751      
2467.2036      2467.1348      2421.7048      5.2717008      7.2839819      0.00057155568  0.00030518416  2494.3421      
2467.3560      2467.2871      2421.8571      5.275968       7.2832199      0.00057583913  0.00030658423  2490.5487      
2467.5084      2467.4394      2422.0094      5.2802352      7.2824579      0.00058036445  0.00030700001  2489.44        
2467.6608      2467.5918      2422.1618      5.2845024      7.2816959      0.00058458206  0.00030700001  2486.4721      
2467.8132      2467.7441      2422.3141      5.2887696      7.2809339      0.00058898405  0.00030722584  2483.3152      
2467.9656      2467.8964      2422.4664      5.2930368      7.2801719      0.00059185942  0.00030865087  2480.3364      
2468.1180      2468.0488      2422.6188      5.297304       7.2794099      0.00059452339  0.000309       2485.3633      
2468.2704      2468.2011      2422.7711      5.3015712      7.2786479      0.00059646352  0.000309       2486.3387      
2468.4228      2468.3535      2422.9235      5.3058383      7.2778859      0.00059831673  0.000309       2485.5654      
2468.5752      2468.5058      2423.0758      5.3101055      7.2771239      0.00059927128  0.000309       2480.6162      
2468.7276      2468.6581      2423.2281      5.3143727      7.2763619      0.00059965177  0.000309       2479.9694      
2468.8800      2468.8105      2423.3805      5.3186399      7.2755999      0.00059949904  0.000309       2482.0811      
2469.0324      2468.9628      2423.5328      5.3229071      7.2748379      0.00059879002  0.00030916803  2483.3279      
2469.1848      2469.1151      2423.6851      5.3271743      7.2740759      0.00059757814  0.00030988223  2480.2799      
2469.3372      2469.2675      2423.8375      5.3314415      7.2733139      0.00059564099  0.00031        2477.9802      
2469.4896      2469.4198      2423.9898      5.3357087      7.2725519      0.0005945086   0.00031        2479.9462      
2469.6420      2469.5721      2424.1421      5.3399759      7.2717899      0.00059434203  0.00031        2475.6063      
2469.7944      2469.7245      2424.2945      5.3442431      7.2710279      0.0005956834   0.00031        2473.1919      
2469.9468      2469.8768      2424.4468      5.3485103      7.2702659      0.0005961628   0.00031        2474.8944      
2470.0992      2470.0292      2424.5992      5.3528767      7.2707935      0.0005967442   0.00031        2473.3747      
2470.2516      2470.1815      2424.7515      5.3572963      7.2720127      0.00059752297  0.00031        2472.9498      
2470.4040      2470.3338      2424.9038      5.3617159      7.2732319      0.00059836327  0.00031        2470.2545      
2470.5564      2470.4862      2425.0562      5.3661355      7.2744511      0.00059859782  0.00031        2467           
2470.7088      2470.6385      2425.2085      5.3705551      7.2756703      0.00059886409  0.00031        2464.9885      
2470.8612      2470.7908      2425.3608      5.3749747      7.2768895      0.00059941277  0.00030809934  2466.0833      
2471.0136      2470.9432      2425.5132      5.3793943      7.2781087      0.00060036122  0.00030328983  2477.402       
2471.1660      2471.0955      2425.6655      5.3838139      7.2793279      0.00060052337  0.00030300001  2474.6823      
2471.3184      2471.2478      2425.8178      5.3882335      7.2805471      0.00060115537  0.00030300001  2479.6488      
2471.4708      2471.4002      2425.9702      5.3926531      7.2817663      0.00060136112  0.00030300001  2483.9811      
2471.6232      2471.5525      2426.1225      5.3970727      7.2829855      0.00060100691  0.00030300001  2486.6264      
2471.7756      2471.7048      2426.2748      5.4014923      7.2842047      0.00060090637  0.00030300001  2485.206       
2471.9280      2471.8572      2426.4272      5.4059119      7.2854239      0.00059644807  0.00030300001  2484           
2472.0804      2472.0095      2426.5795      5.4103315      7.2866431      0.00059256982  0.00030300001  2486.1803      
2472.2328      2472.1618      2426.7318      5.4147511      7.2878623      0.00058848175  0.000302831    2488.3476      
2472.3852      2472.3142      2426.8842      5.4191707      7.2890815      0.00058430947  0.00030211707  2483.3192      
2472.5376      2472.4665      2427.0365      5.4235903      7.2903007      0.00057924781  0.000302       2505.7141      
2472.6900      2472.6188      2427.1888      5.4280099      7.2915199      0.0005747712   0.000302       2551.9253      
2472.8424      2472.7712      2427.3412      5.4324295      7.2927391      0.00057026399  0.00030159623  2601.9932      
2472.9948      2472.9235      2427.4935      5.4368491      7.2939583      0.00056678837  0.00030019066  2604.9691      
2473.1472      2473.0758      2427.6458      5.4412687      7.2951775      0.00056332364  0.00030000001  2567.5651      
2473.2996      2473.2282      2427.7981      5.4456883      7.2963967      0.00056069209  0.00028906088  2499.4962      
2473.4520      2473.3805      2427.9505      5.4501079      7.2976159      0.00055883714  0.0002765558   2483.2039      
2473.6044      2473.5328      2428.1028      5.4545275      7.2988351      0.00055763033  0.00027302393  2506.3977      
2473.7568      2473.6851      2428.2551      5.4589471      7.3000543      0.00055492544  0.00027259173  2534.563       
2473.9092      2473.8375      2428.4075      5.4633667      7.3012735      0.00055114319  0.00027700145  2549.7465      
2474.0616      2473.9898      2428.5598      5.4677863      7.3024927      0.00054824214  0.00028275189  2555.6324      
2474.2140      2474.1421      2428.7121      5.4722059      7.3037119      0.00054656713  0.00028774104  2583.1575      
2474.3664      2474.2945      2428.8645      5.4766255      7.3049311      0.00054538538  0.00028613158  2597.5032      
2474.5188      2474.4468      2429.0168      5.4810451      7.3061502      0.00054402661  0.0002843222   2581.4968      
2474.6712      2474.5991      2429.1691      5.4854647      7.3073694      0.00054545521  0.00028238866  2541.0826      
2474.8236      2474.7515      2429.3215      5.4898843      7.3085886      0.00055147998  0.00027959904  2526.788       
2474.9760      2474.9038      2429.4738      5.4943039      7.3098078      0.00055812539  0.00027829044  2517.2128      
2475.1284      2475.0561      2429.6261      5.4987235      7.311027       0.00056645255  0.00027602463  2505.2425      
2475.2808      2475.2085      2429.7785      5.5031431      7.3122462      0.00057371773  0.00027710575  2511.0163      
2475.4332      2475.3608      2429.9308      5.5075627      7.3134654      0.00058251947  0.00028086853  2518.6771      
2475.5856      2475.5131      2430.0831      5.5119823      7.3146846      0.00058969195  0.00028222645  2516.1052      
2475.7380      2475.6655      2430.2355      5.5164019      7.3159038      0.00059440067  0.00028434208  2512.4594      
2475.8904      2475.8178      2430.3878      5.5208215      7.317123       0.00059672126  0.00028719976  2528.4252      
2476.0428      2475.9701      2430.5401      5.5252411      7.3183422      0.00059783324  0.00029164137  2508.1517      
2476.1952      2476.1225      2430.6925      5.5296607      7.3195614      0.00059751845  0.0002972678   2489.7631      
2476.3476      2476.2748      2430.8448      5.5340803      7.3207806      0.00059594259  0.00029819651  2491.9112      
2476.5000      2476.4271      2430.9971      5.5384999      7.3219998      0.00059302123  0.00029788304  2530.9053      
2476.6524      2476.5795      2431.1495      5.5429195      7.323219       0.00058936326  0.00029756947  2547.4898      
