~VERSION INFORMATION
VERS.                  2.0 : CWLS LOG ASCII STANDARD VERSION 2.0
WRAP.                  NO  : DATA IS NOT WRAPPED
~Well Information Section
#MNEM.UNIT          VALUE/NAME                 DESCRIPTION
#----------------------------------------------------------------------
STRT.m                 158.9532 : START DEPTH
STOP.m                3049.2192 : STOP DEPTH
STEP.m                   0.1524 : STEP
NULL.                -999.25 : NULL VALUE
COMP.                                             : COMPANY
WELL.    Z-Zim-1                                  : WELL
FLD .                                             : FIELD
LOC .             500001,       6637623.6         : LOCATION
CNTY.                                             : COUNTY
STAT.                                             : STATE
CTRY.                                             : COUNTRY
SRVC.    Fugro-Jason                              : SERVICE
DATE.                                             : DATE
API .                                             : API
~Curve Information Section
#MNEM.UNIT          API CODE                   DESCRIPTION
#----------------------------------------------------------------------
DEPTH.m                          : * MD (TRACK/INDEX)
TVD  .m                          : * TVD (TRACK/INDEX)
TVDSS.m                          : * TVDSS (TRACK/INDEX)
DX   .m                          : TRACK DELTA X-COORD
DY   .m                          : TRACK DELTA Y-COORD
DTS  .s/m                        : S-SONIC
DT   .s/m                        : P-SONIC
RHOB .kg/m^3                     : DENSITY
~Parameter Information Section
#MNEM.UNIT          API CODE                   DESCRIPTION
#----------------------------------------------------------------------
XCRD .m                500001.000            : WELL POSITION X-COORD
YCRD .m                6637623.600           : WELL POSITION Y-COORD
DATUM.m                45.430                : WELL DATUM
~Other Information Section
#----------------------------------------------------------------------
# Data exported from JGW, (C) Fugro-Jason, 2011
# Input file: 02_WELL/Z-Zim-1.wll
#----------------------------------------------------------------------
~A DEPTH        TVD            TVDSS          DELTAX         DELTAY         DTS            DT             RHOB           
# ...
1312.7736      1312.7469      1267.3169      3.4616792      4.6610944      0.00076311103  0.00036978837  2219.0498      
1312.9260      1312.8993      1267.4693      3.461222       4.661704       0.00076130479  0.00036907496  2261.2803      
1313.0784      1313.0517      1267.6217      3.4607648      4.6623136      0.00076438254  0.00037027657  2272.3062      
1313.2308      1313.2041      1267.7741      3.4603076      4.6629232      0.00077372685  0.00037390674  2250.4667      
1313.3832      1313.3565      1267.9265      3.4598504      4.6635328      0.00078292644  0.0003774035   2234.5182      
1313.5356      1313.5089      1268.0789      3.4593932      4.6641424      0.00079089894  0.00038037726  2224.7091      
1313.6880      1313.6613      1268.2313      3.458936       4.664752       0.00079155868  0.00038062504  2222.7428      
1313.8404      1313.8137      1268.3837      3.4584788      4.6653616      0.00078661865  0.00037878747  2241.1202      
1313.9928      1313.9661      1268.5361      3.4580216      4.6659712      0.00077861737  0.0003757784   2242.6881      
1314.1452      1314.1185      1268.6885      3.4575644      4.6665808      0.00077310189  0.00037367356  2245.4571      
1314.2976      1314.2709      1268.8409      3.4571072      4.6671904      0.00076109915  0.00036894172  2273.7463      
1314.4500      1314.4233      1268.9933      3.45665        4.6678         0.00074663942  0.00036315555  2273.5551      
1314.6024      1314.5757      1269.1457      3.4561928      4.6684096      0.00073591867  0.00035870343  2263.7499      
1314.7548      1314.7281      1269.2981      3.4557356      4.6690192      0.00072535383  0.00035419636  2248.7215      
1314.9072      1314.8805      1269.4505      3.4552784      4.6696288      0.000722464    0.000352959    2231.853       
1315.0596      1315.0329      1269.6029      3.4548212      4.6702384      0.00071945351  0.0003516277   2250.8898      
1315.2120      1315.1853      1269.7553      3.454364       4.670848       0.0007102769   0.00034755087  2282.3254      
1315.3644      1315.3377      1269.9077      3.4539068      4.6714576      0.00070231592  0.00034392906  2307.2227      
1315.5168      1315.4901      1270.0601      3.4534496      4.6720672      0.00069576114  0.00034088952  2314.2413      
1315.6692      1315.6425      1270.2125      3.4529924      4.6726768      0.00069408011  0.00034010592  2262.1595      
1315.8216      1315.7949      1270.3649      3.4525352      4.6732864      0.0006975823   0.00034174391  2235.7417      
1315.9740      1315.9473      1270.5173      3.452078       4.673896       0.00070259264  0.00034406292  2228.6285      
1316.1264      1316.0997      1270.6697      3.4516208      4.6745056      0.00070621047  0.00034571962  2232.0167      
1316.2788      1316.2521      1270.8221      3.4511636      4.6751152      0.00071417158  0.00034925808  2235.7471      
1316.4312      1316.4045      1270.9745      3.4507064      4.6757248      0.00072932325  0.00035590385  2254.1859      
1316.5836      1316.5569      1271.1269      3.4502492      4.6763344      0.00074046363  0.00036060237  2253.4512      
1316.7360      1316.7093      1271.2793      3.449792       4.676944       0.00075534074  0.00036666668  2231.7476      
1316.8884      1316.8617      1271.4317      3.4493348      4.6775536      0.00076152703  0.00036916275  2202.3982      
1317.0408      1317.0140      1271.5840      3.4488776      4.6781632      0.0007632106   0.00036982759  2191.6657      
1317.1932      1317.1664      1271.7364      3.4484204      4.6787728      0.00076464703  0.00037039232  2207.1816      
1317.3456      1317.3188      1271.8888      3.4479632      4.6793824      0.00076485501  0.00037047401  2241.9699      
1317.4980      1317.4712      1272.0412      3.4475061      4.679992       0.00076589989  0.00037088223  2279.2315      
1317.6504      1317.6236      1272.1936      3.4470489      4.6806016      0.00076753619  0.0003715216   2270.5631      
1317.8028      1317.7760      1272.3460      3.4465917      4.6812112      0.00076917557  0.0003721592   2290.0385      
1317.9552      1317.9284      1272.4984      3.4461345      4.6818208      0.00077084427  0.0003728057   2302.5395      
1318.1076      1318.0808      1272.6508      3.4456773      4.6824304      0.00077129999  0.000372982    2268.4894      
1318.2600      1318.2332      1272.8032      3.4452201      4.68304        0.00077072161  0.00037275824  2234.0215      
1318.4124      1318.3856      1272.9556      3.4447629      4.6836496      0.00076896046  0.00037207568  2210.9153      
1318.5648      1318.5380      1273.1080      3.4443057      4.6842592      0.00076744709  0.00037148696  2202.1221      
1318.7172      1318.6904      1273.2604      3.4438485      4.6848688      0.00076439363  0.00037029098  2204.5955      
1318.8696      1318.8428      1273.4128      3.4433913      4.6854784      0.00076142211  0.00036912     2196.9494      
1319.0220      1318.9952      1273.5652      3.4429341      4.686088       0.00075793021  0.00036773495  2209.3162      
1319.1744      1319.1476      1273.7176      3.4424769      4.6866976      0.00075506194  0.00036658774  2209.8746      
1319.3268      1319.3000      1273.8700      3.4420197      4.6873072      0.00075156743  0.00036517813  2195.5946      
1319.4792      1319.4524      1274.0224      3.4415625      4.6879168      0.00074948028  0.00036433198  2199.4176      
1319.6316      1319.6048      1274.1748      3.4411053      4.6885264      0.00074817298  0.00036380001  2217.1928      
1319.7840      1319.7572      1274.3272      3.4406481      4.689136       0.00074824204  0.0003638281   2203.1233      
1319.9364      1319.9096      1274.4796      3.4401909      4.6897456      0.00074961727  0.00036438779  2171.8138      
1320.0888      1320.0620      1274.6320      3.4399113      4.690444       0.00075199092  0.00036534925  2180.2683      
1320.2412      1320.2144      1274.7844      3.4397589      4.691206       0.00075483474  0.00036649703  2202.9012      
1320.3936      1320.3668      1274.9368      3.4396065      4.691968       0.00075634571  0.0003671029   2215.5851      
1320.5460      1320.5192      1275.0892      3.4394541      4.69273        0.00075801946  0.00036777127  2229.947       
1320.6984      1320.6716      1275.2416      3.4393017      4.693492       0.00075853302  0.000367976    2257.6019      
1320.8508      1320.8240      1275.3940      3.4391493      4.694254       0.00075853302  0.000367976    2262.547       
1321.0032      1320.9764      1275.5464      3.4389969      4.695016       0.00075853302  0.000367976    2259.8721      
1321.1556      1321.1288      1275.6988      3.4388445      4.695778       0.00075853302  0.000367976    2263.0066      
1321.3080      1321.2812      1275.8512      3.4386921      4.69654        0.00075968778  0.00036843459  2275.7227      
1321.4604      1321.4336      1276.0036      3.4385397      4.697302       0.00076122654  0.00036904413  2250.2976      
1321.6128      1321.5860      1276.1560      3.4383873      4.698064       0.00076265367  0.00036960807  2243           
1321.7652      1321.7384      1276.3084      3.4382349      4.698826       0.00076274702  0.00036964499  2240.7264      
1321.9176      1321.8908      1276.4608      3.4380825      4.699588       0.00076144224  0.00036912926  2234.7785      
1322.0700      1322.0432      1276.6132      3.4379301      4.70035        0.00075931417  0.00036828462  2237.3591      
1322.2224      1322.1956      1276.7656      3.4377777      4.701112       0.00075613749  0.00036701949  2237.0251      
1322.3748      1322.3480      1276.9180      3.4376253      4.701874       0.00075471174  0.00036644767  2240.2894      
1322.5272      1322.5004      1277.0704      3.4374729      4.702636       0.00075156182  0.00036517586  2245.0802      
1322.6796      1322.6528      1277.2228      3.4373205      4.703398       0.00074947558  0.00036433007  2241.7888      
1322.8320      1322.8052      1277.3752      3.4371681      4.70416        0.00074742834  0.00036349484  2250.2556      
