~VERSION INFORMATION
VERS.                  2.0 : CWLS LOG ASCII STANDARD VERSION 2.0
WRAP.                  NO  : DATA IS NOT WRAPPED
~Well Information Section
#MNEM.UNIT          VALUE/NAME                 DESCRIPTION
#----------------------------------------------------------------------
STRT.m                 158.9532 : START DEPTH
STOP.m                3049.2192 : STOP DEPTH
STEP.m                   0.1524 : STEP
NULL.                -999.25 : NULL VALUE
COMP.                                             : COMPANY
WELL.    Z-Zim-1                                  : WELL
FLD .                                             : FIELD
LOC .             500001,       6637623.6         : LOCATION
CNTY.                                             : COUNTY
STAT.                                             : STATE
CTRY.                                             : COUNTRY
SRVC.    Fugro-Jason                              : SERVICE
DATE.                                             : DATE
API .                                             : API
~Curve Information Section
#MNEM.UNIT          API CODE                   DESCRIPTION
#----------------------------------------------------------------------
DEPTH.m                          : * MD (TRACK/INDEX)
TVD  .m                          : * TVD (TRACK/INDEX)
TVDSS.m                          : * TVDSS (TRACK/INDEX)
DX   .m                          : TRACK DELTA X-COORD
DY   .m                          : TRACK DELTA Y-COORD
DTS  .s/m                        : S-SONIC
DT   .s/m                        : P-SONIC
RHOB .kg/m^3                     : DENSITY
~Parameter Information Section
#MNEM.UNIT          API CODE                   DESCRIPTION
#----------------------------------------------------------------------
XCRD .m                500001.000            : WELL POSITION X-COORD
YCRD .m                6637623.600           : WELL POSITION Y-COORD
DATUM.m                45.430                : WELL DATUM
~Other Information Section
#----------------------------------------------------------------------
# Data exported from JGW, (C) Fugro-Jason, 2011
# Input file: 02_WELL/Z-Zim-1.wll
#----------------------------------------------------------------------
~A DEPTH        TVD            TVDSS          DELTAX         DELTAY         DTS            DT             RHOB           
# ...
924.7632       924.7452       879.3152       2.1195264      3.3133425      -999.25        0.00043442171  1900.4609      
924.9156       924.8976       879.4676       2.1198312      3.3144093      -999.25        0.00043354832  1917.0414      
925.0680       925.0500       879.6200       2.120136       3.3154761      -999.25        0.00043326545  1946.7157      
925.2204       925.2024       879.7724       2.1204408      3.3165429      -999.25        0.00043389356  1980.097       
925.3728       925.3548       879.9248       2.1207456      3.3176097      -999.25        0.00043566837  1950.7956      
925.5252       925.5072       880.0772       2.1210504      3.3186765      -999.25        0.00043858533  1936.2536      
925.6776       925.6596       880.2296       2.1213552      3.3197433      -999.25        0.00044105962  1937.159       
925.8300       925.8120       880.3820       2.12166        3.3208101      -999.25        0.00044373267  1943.7173      
925.9824       925.9644       880.5344       2.1219648      3.3218769      -999.25        0.00044516443  1937.7016      
926.1348       926.1168       880.6868       2.1222696      3.3229437      -999.25        0.00044553585  1924.5677      
926.2872       926.2692       880.8392       2.1225744      3.3240105      -999.25        0.00044557999  1934.8931      
926.4396       926.4216       880.9916       2.1228792      3.3250773      -999.25        0.00044557999  1953.2924      
926.5920       926.5740       881.1440       2.123184       3.3261441      -999.25        0.00044559552  1944.04        
926.7444       926.7264       881.2964       2.1234888      3.3272109      -999.25        0.00044576697  1940.1263      
926.8968       926.8788       881.4488       2.1237936      3.3282777      -999.25        0.00044653164  1926.5466      
927.0492       927.0312       881.6012       2.1240984      3.3293445      -999.25        0.00044781269  1925.7088      
927.2016       927.1835       881.7535       2.1244033      3.3304113      -999.25        0.00044938009  1959.3853      
927.3540       927.3359       881.9059       2.1247081      3.3314781      -999.25        0.0004502903   1929.76        
927.5064       927.4883       882.0583       2.1250129      3.3325449      -999.25        0.00045040969  1941.5859      
927.6588       927.6407       882.2107       2.1253177      3.3336117      -999.25        0.00045000055  1951.6007      
927.8112       927.7931       882.3631       2.1256225      3.3346785      -999.25        0.00044906752  1932.3906      
927.9636       927.9455       882.5155       2.1259273      3.3357453      -999.25        0.0004483292   1949.2893      
928.1160       928.0979       882.6679       2.1262321      3.3368121      -999.25        0.0004481088   1949.1784      
928.2684       928.2503       882.8203       2.1265369      3.3378789      -999.25        0.00044808301  1934.4847      
928.4208       928.4027       882.9727       2.1268417      3.3389457      -999.25        0.00044812046  1906.6805      
928.5732       928.5551       883.1251       2.1271465      3.3400125      -999.25        0.00044831124  1898.6299      
928.7256       928.7075       883.2775       2.1274513      3.3410793      -999.25        0.00044916216  1894.6366      
928.8780       928.8599       883.4299       2.1277561      3.3421461      -999.25        0.0004499034   1905.88        
929.0304       929.0123       883.5823       2.1280609      3.3432129      -999.25        0.00045059684  1930.4644      
929.1828       929.1647       883.7347       2.1283657      3.3442797      -999.25        0.0004508644   1942.7767      
929.3352       929.3171       883.8871       2.1286705      3.3453465      -999.25        0.00045191319  1948.259       
929.4876       929.4695       884.0395       2.1289753      3.3464132      -999.25        0.00045326615  1945.8353      
929.6400       929.6219       884.1919       2.1292801      3.34748        -999.25        0.00045475433  1940.4186      
929.7924       929.7743       884.3443       2.1295849      3.3485468      -999.25        0.00045544125  1938.9233      
929.9448       929.9267       884.4967       2.1298897      3.3496136      -999.25        0.00045558006  1915.9409      
930.0972       930.0791       884.6491       2.1304861      3.3501944      -999.25        0.00045544951  1908.963       
930.2496       930.2315       884.8015       2.1312481      3.3504992      -999.25        0.00045494184  1918.3071      
930.4020       930.3839       884.9539       2.1320101      3.350804       -999.25        0.00045371081  1944.5369      
930.5544       930.5363       885.1063       2.1327721      3.3511088      -999.25        0.0004521212   1964.4318      
930.7068       930.6887       885.2587       2.1335341      3.3514136      -999.25        0.00045108586  1962.1629      
930.8592       930.8411       885.4111       2.1342961      3.3517184      -999.25        0.00045061841  1953.859       
931.0116       930.9935       885.5635       2.1350581      3.3520232      -999.25        0.00045055433  1947.9685      
931.1640       931.1459       885.7159       2.1358201      3.352328       -999.25        0.00045034681  1933.0602      
931.3164       931.2983       885.8683       2.1365821      3.3526328      -999.25        0.00044935429  1928.0644      
931.4688       931.4507       886.0207       2.1373441      3.3529376      -999.25        0.0004479915   1933.9913      
931.6212       931.6031       886.1731       2.1381061      3.3532424      -999.25        0.00044593558  1946.4971      
931.7736       931.7554       886.3254       2.1388681      3.3535472      -999.25        0.00044420822  1935.5364      
931.9260       931.9078       886.4778       2.1396301      3.353852       -999.25        0.00044208979  1930.0251      
932.0784       932.0602       886.6302       2.1403921      3.3541568      -999.25        0.00044047988  1922.3111      
932.2308       932.2126       886.7826       2.1411541      3.3544616      -999.25        0.00043894985  1914.9417      
932.3832       932.3650       886.9350       2.1419161      3.3547664      -999.25        0.0004385633   1927.1265      
932.5356       932.5174       887.0874       2.1426781      3.3550712      -999.25        0.00043949248  1936.1615      
932.6880       932.6698       887.2398       2.1434401      3.355376       -999.25        0.00044098417  1929.7004      
932.8404       932.8222       887.3922       2.1442021      3.3556808      -999.25        0.00044296355  1918.7304      
932.9928       932.9746       887.5446       2.1449641      3.3559856      -999.25        0.00044480753  1929.9252      
933.1452       933.1270       887.6970       2.1457261      3.3562904      -999.25        0.00044677641  1948.5451      
933.2976       933.2794       887.8494       2.1464881      3.3565952      -999.25        0.00044831355  1926.7644      
933.4500       933.4318       888.0018       2.1472501      3.3569         -999.25        0.0004491066   1898.7542      
933.6024       933.5842       888.1542       2.1480121      3.3572048      -999.25        0.0004484586   1909.4665      
933.7548       933.7366       888.3066       2.1487741      3.3575096      -999.25        0.00044677527  1928.1659      
933.9072       933.8890       888.4590       2.1495361      3.3578144      -999.25        0.00044483197  1939.4813      
934.0596       934.0414       888.6114       2.1502981      3.3581192      -999.25        0.00044298839  1940.304       
934.2120       934.1938       888.7638       2.1510601      3.358424       -999.25        0.00044103074  1931.9471      
934.3644       934.3462       888.9162       2.1518221      3.3587288      -999.25        0.0004394557   1945.4303      
934.5168       934.4986       889.0686       2.1525841      3.3590336      -999.25        0.00043847117  1919.8454      
934.6692       934.6510       889.2210       2.1533461      3.3593384      -999.25        0.00043809842  1899.4078      
934.8216       934.8034       889.3734       2.1541081      3.3596432      -999.25        0.00043807161  1894.4378      
