~VERSION INFORMATION
VERS.                  2.0 : CWLS LOG ASCII STANDARD VERSION 2.0
WRAP.                  NO  : DATA IS NOT WRAPPED
~Well Information Section
#MNEM.UNIT          VALUE/NAME                 DESCRIPTION
#----------------------------------------------------------------------
STRT.m                 158.9532 : START DEPTH
STOP.m                3049.2192 : STOP DEPTH
STEP.m                   0.1524 : STEP
NULL.                -999.25 : NULL VALUE
COMP.                                             : COMPANY
WELL.    Z-Zim-1                                  : WELL
FLD .                                             : FIELD
LOC .             500001,       6637623.6         : LOCATION
CNTY.                                             : COUNTY
STAT.                                             : STATE
CTRY.                                             : COUNTRY
SRVC.    Fugro-Jason                              : SERVICE
DATE.                                             : DATE
API .                                             : API
~Curve Information Section
#MNEM.UNIT          API CODE                   DESCRIPTION
#----------------------------------------------------------------------
DEPTH.m                          : * MD (TRACK/INDEX)
TVD  .m                          : * TVD (TRACK/INDEX)
TVDSS.m                          : * TVDSS (TRACK/INDEX)
DX   .m                          : TRACK DELTA X-COORD
DY   .m                          : TRACK DELTA Y-COORD
DTS  .s/m                        : S-SONIC
DT   .s/m                        : P-SONIC
RHOB .kg/m^3                     : DENSITY
~Parameter Information Section
#MNEM.UNIT          API CODE                   DESCRIPTION
#----------------------------------------------------------------------
XCRD .m                500001.000            : WELL POSITION X-COORD
YCRD .m                6637623.600           : WELL POSITION Y-COORD
DATUM.m                45.430                : WELL DATUM
~Other Information Section
#----------------------------------------------------------------------
# Data exported from JGW, (C) Fugro-Jason, 2011
# Input file: 02_WELL/Z-Zim-1.wll
#----------------------------------------------------------------------
~A DEPTH        TVD            TVDSS          DELTAX         DELTAY         DTS            DT             RHOB           
# ...
730.7580       730.7466       685.3166       0.84757998     2.5915161      -999.25        0.00049721572  1992.9964      
730.9104       730.8990       685.4690       0.84910398     2.5918209      -999.25        0.00049569936  2006.3421      
731.0628       731.0514       685.6214       0.85062798     2.5921257      -999.25        0.00049564498  2014.6549      
731.2152       731.2038       685.7738       0.85215198     2.5924305      -999.25        0.00049564498  2017.1189      
731.3676       731.3562       685.9262       0.85367598     2.5927353      -999.25        0.00049564498  2030.6293      
731.5200       731.5086       686.0786       0.85519998     2.5930401      -999.25        0.00049697542  2019.7975      
731.6724       731.6610       686.2310       0.85672398     2.5933449      -999.25        0.00049870498  2006.4379      
731.8248       731.8134       686.3834       0.85824798     2.5936497      -999.25        0.00050048434  1994.7284      
731.9772       731.9658       686.5358       0.85977198     2.5939545      -999.25        0.00050065201  1984.6239      
732.1296       732.1182       686.6882       0.86129598     2.5942593      -999.25        0.00050065201  2007.3168      
732.2820       732.2705       686.8405       0.86281998     2.5945641      -999.25        0.00050141987  2011.4487      
732.4344       732.4229       686.9929       0.86434398     2.5948689      -999.25        0.00050340731  2002.8281      
732.5868       732.5753       687.1453       0.86586798     2.5951737      -999.25        0.00050513942  2019.784       
732.7392       732.7277       687.2977       0.86739198     2.5954785      -999.25        0.00050565848  2036.597       
732.8916       732.8801       687.4501       0.86891598     2.5957833      -999.25        0.00050565819  2019.0212      
733.0440       733.0325       687.6025       0.87043998     2.596088       -999.25        0.00050607543  1988.562       
733.1964       733.1849       687.7549       0.87196398     2.5963928      -999.25        0.00050757827  1979.997       
733.3488       733.3373       687.9073       0.87348798     2.5966976      -999.25        0.0005065072   1967.4535      
733.5012       733.4897       688.0597       0.87501198     2.5970024      -999.25        0.00050569652  1958.9364      
733.6536       733.6421       688.2121       0.87653598     2.5973072      -999.25        0.00050614886  1969.0859      
733.8060       733.7945       688.3645       0.87805998     2.597612       -999.25        0.00050802953  2009.1547      
733.9584       733.9469       688.5169       0.87958398     2.5979168      -999.25        0.00050991896  2013           
734.1108       734.0993       688.6693       0.88110798     2.5982216      -999.25        0.00051064187  2033.845       
734.2632       734.2516       688.8216       0.88263198     2.5985264      -999.25        0.00051066501  2038.2953      
734.4156       734.4040       688.9740       0.88415598     2.5988312      -999.25        0.00051042119  2011.3818      
734.5680       734.5564       689.1264       0.88567998     2.599136       -999.25        0.00050882351  2027           
734.7204       734.7088       689.2788       0.88720399     2.5994408      -999.25        0.00050817051  2009.2656      
734.8728       734.8612       689.4312       0.88872799     2.5997456      -999.25        0.00050880895  2000.7925      
735.0252       735.0136       689.5836       0.89025199     2.6000504      -999.25        0.00051086051  2007.7968      
735.1776       735.1660       689.7360       0.89177599     2.6003552      -999.25        0.00051258357  2002.4966      
735.3300       735.3184       689.8884       0.89329999     2.60066        -999.25        0.00051466653  2023.2329      
735.4824       735.4708       690.0408       0.89482399     2.6009648      -999.25        0.00051642098  2029.957       
735.6348       735.6232       690.1932       0.89634799     2.6012696      -999.25        0.00051806069  2026.0706      
735.7872       735.7756       690.3456       0.89787199     2.6015744      -999.25        0.00051808319  2028.0572      
735.9396       735.9280       690.4980       0.89939599     2.6018792      -999.25        0.00051659633  2005.1887      
736.0920       736.0804       690.6504       0.90091999     2.602184       -999.25        0.00051475832  1995.1032      
736.2444       736.2328       690.8027       0.90244399     2.6024888      -999.25        0.00051326451  1981.7675      
736.3968       736.3851       690.9551       0.90396799     2.6027936      -999.25        0.00051316799  1949.2217      
736.5492       736.5375       691.1075       0.90549199     2.6030984      -999.25        0.00051316799  2009.15        
736.7016       736.6899       691.2599       0.90701599     2.6034032      -999.25        0.00051316799  2030.1614      
736.8540       736.8423       691.4123       0.90853999     2.603708       -999.25        0.00051367881  2031.4667      
737.0064       736.9947       691.5647       0.91006399     2.6040128      -999.25        0.00051557916  2032.4814      
737.1588       737.1471       691.7171       0.91158799     2.6043176      -999.25        0.00051746754  2010.3281      
737.3112       737.2995       691.8695       0.91311199     2.6046224      -999.25        0.00051815571  2010.6431      
737.4636       737.4519       692.0219       0.91463599     2.6049272      -999.25        0.00051876551  2021.3936      
737.6160       737.6043       692.1743       0.91615999     2.605232       -999.25        0.00052074917  2037.3189      
737.7684       737.7567       692.3267       0.91768399     2.6055368      -999.25        0.00052257747  2047.0254      
737.9208       737.9091       692.4791       0.91920799     2.6058416      -999.25        0.00052177192  2026.1793      
738.0732       738.0615       692.6315       0.92073199     2.6061464      -999.25        0.00052004768  2017.1752      
738.2256       738.2139       692.7839       0.92225599     2.6064512      -999.25        0.00051829274  2012.8321      
738.3780       738.3662       692.9362       0.92377999     2.606756       -999.25        0.00051811589  1958.9821      
738.5304       738.5186       693.0886       0.92530399     2.6070608      -999.25        0.00051509975  1980.0225      
738.6828       738.6710       693.2410       0.92682799     2.6073656      -999.25        0.00051242361  2005.8686      
738.8352       738.8234       693.3934       0.92835199     2.6076704      -999.25        0.00051033905  2020.1638      
738.9876       738.9758       693.5458       0.929876       2.6079752      -999.25        0.00050861059  2007.8258      
739.1400       739.1282       693.6982       0.9314         2.60828        -999.25        0.00050816202  1986.2351      
739.2924       739.2806       693.8506       0.932924       2.6085848      -999.25        0.00050816202  1974.5047      
739.4448       739.4330       694.0030       0.934448       2.6088896      -999.25        0.0005086135   1977.7207      
739.5972       739.5854       694.1554       0.935972       2.6091944      -999.25        0.00051044796  1999.3769      
739.7496       739.7378       694.3078       0.937496       2.6094992      -999.25        0.00051235478  1988.6202      
739.9020       739.8902       694.4602       0.93902        2.609804       -999.25        0.0005154289   1988.2873      
740.0544       740.0426       694.6126       0.940544       2.6100544      -999.25        0.00051804233  1995.6244      
740.2068       740.1950       694.7650       0.942068       2.6102068      -999.25        0.00051817502  2000.8696      
740.3592       740.3473       694.9173       0.943592       2.6103592      -999.25        0.00051817502  1985.3033      
740.5116       740.4997       695.0697       0.945116       2.6105116      -999.25        0.00051817502  1989.3296      
740.6640       740.6521       695.2221       0.94664        2.610664       -999.25        0.00051756149  1991.4831      
740.8164       740.8045       695.3745       0.94816399     2.6108164      -999.25        0.00051585968  1976.4919      
