~VERSION INFORMATION
VERS.                  2.0 : CWLS LOG ASCII STANDARD VERSION 2.0
WRAP.                  NO  : DATA IS NOT WRAPPED
~Well Information Section
#MNEM.UNIT          VALUE/NAME                 DESCRIPTION
#----------------------------------------------------------------------
STRT.m                 158.9532 : START DEPTH
STOP.m                3049.2192 : STOP DEPTH
STEP.m                   0.1524 : STEP
NULL.                -999.25 : NULL VALUE
COMP.                                             : COMPANY
WELL.    Z-Zim-1                                  : WELL
FLD .                                             : FIELD
LOC .             500001,       6637623.6         : LOCATION
CNTY.                                             : COUNTY
STAT.                                             : STATE
CTRY.                                             : COUNTRY
SRVC.    Fugro-Jason                              : SERVICE
DATE.                                             : DATE
API .                                             : API
~Curve Information Section
#MNEM.UNIT          API CODE                   DESCRIPTION
#----------------------------------------------------------------------
DEPTH.m                          : * MD (TRACK/INDEX)
TVD  .m                          : * TVD (TRACK/INDEX)
TVDSS.m                          : * TVDSS (TRACK/INDEX)
DX   .m                          : TRACK DELTA X-COORD
DY   .m                          : TRACK DELTA Y-COORD
DTS  .s/m                        : S-SONIC
DT   .s/m                        : P-SONIC
RHOB .kg/m^3                     : DENSITY
~Parameter Information Section
#MNEM.UNIT          API CODE                   DESCRIPTION
#----------------------------------------------------------------------
XCRD .m                500001.000            : WELL POSITION X-COORD
YCRD .m                6637623.600           : WELL POSITION Y-COORD
DATUM.m                45.430                : WELL DATUM
~Other Information Section
#----------------------------------------------------------------------
# Data exported from JGW, (C) Fugro-Jason, 2011
# Input file: 02_WELL/Z-Zim-1.wll
#----------------------------------------------------------------------
~A DEPTH        TVD            TVDSS          DELTAX         DELTAY         DTS            DT             RHOB           
# ...
2078.5836      2078.5421      2033.1121      1.6815016      6.9656655      0.00054435483  0.00028424472  2461.5378      
2078.7360      2078.6945      2033.2645      1.682416       6.9650559      0.00054785508  0.00028570534  2500.4988      
2078.8884      2078.8469      2033.4169      1.6833305      6.9644463      0.00055073953  0.00028690712  2510.4741      
2079.0408      2078.9993      2033.5693      1.6842449      6.9638367      0.00055304897  0.000287868    2511.6181      
2079.1932      2079.1517      2033.7217      1.6851593      6.9632271      0.00055292211  0.00028781519  2509.1799      
2079.3456      2079.3041      2033.8741      1.6860737      6.9626175      0.00055158192  0.00028725754  2514.6677      
2079.4980      2079.4565      2034.0265      1.6869881      6.9620079      0.0005500723   0.00028662905  2538.7001      
2079.6504      2079.6089      2034.1789      1.6879025      6.9613983      0.00054853885  0.0002859904   2526.1947      
2079.8028      2079.7612      2034.3312      1.6888169      6.9607887      0.00054720265  0.0002854336   2517.8902      
2079.9552      2079.9136      2034.4836      1.6897313      6.9601791      0.00054704997  0.00028537001  2503.3725      
2080.1076      2080.0660      2034.6360      1.6907533      6.9597847      0.00054594562  0.00028490945  2469.5218      
2080.2600      2080.2184      2034.7884      1.6918201      6.9594799      0.00054339688  0.00028384414  2459.2815      
2080.4124      2080.3708      2034.9408      1.6928869      6.9591751      0.00053857949  0.00028182808  2438.3879      
2080.5648      2080.5232      2035.0932      1.6939537      6.9588703      0.00053426542  0.00028001796  2416.0538      
2080.7172      2080.6756      2035.2456      1.6950205      6.9585655      0.00053064651  0.00027849628  2396.429       
2080.8696      2080.8280      2035.3980      1.6960873      6.9582607      0.00052912801  0.00027785701  2403.3947      
2081.0220      2080.9804      2035.5504      1.6971541      6.9579559      0.00052885706  0.00027774291  2381.2674      
2081.1744      2081.1328      2035.7028      1.6982208      6.9576511      0.00052747232  0.00027715913  2375.7547      
2081.3268      2081.2852      2035.8552      1.6992876      6.9573463      0.0005258212   0.00027646222  2397.2062      
2081.4792      2081.4376      2036.0076      1.7003544      6.9570415      0.00052304035  0.00027528653  2412.9088      
2081.6316      2081.5900      2036.1600      1.7014212      6.9567367      0.00051849833  0.00027336401  2408.9931      
2081.7840      2081.7424      2036.3124      1.702488       6.9564319      0.00051572705  0.00027218836  2409.0863      
2081.9364      2081.8948      2036.4648      1.7035548      6.9561271      0.00051248969  0.00027081211  2414.2331      
2082.0888      2082.0472      2036.6172      1.7046216      6.9558223      0.00051138899  0.000270344    2419.0099      
2082.2412      2082.1996      2036.7696      1.7056884      6.9555175      0.00051138899  0.000270344    2431.2497      
2082.3936      2082.3520      2036.9220      1.7067552      6.9552127      0.00051138899  0.000270344    2420.4426      
2082.5460      2082.5044      2037.0744      1.707822       6.9549079      0.00051138899  0.000270344    2400.4862      
2082.6984      2082.6568      2037.2268      1.7088888      6.9546031      0.00051043579  0.00026993786  2394.4597      
2082.8508      2082.8092      2037.3792      1.7099556      6.9542983      0.00050894394  0.00026930183  2376.3597      
2083.0032      2082.9616      2037.5316      1.7110224      6.9539935      0.00050743364  0.00026865803  2359.5736      
2083.1556      2083.1140      2037.6840      1.7120892      6.9536887      0.00050593577  0.00026801866  2361.9912      
2083.3080      2083.2664      2037.8364      1.713156       6.9533839      0.00050552899  0.000267845    2393.5856      
2083.4604      2083.4188      2037.9888      1.7142228      6.9530791      0.00050605147  0.00026806806  2380.0963      
2083.6128      2083.5712      2038.1412      1.7152896      6.9527743      0.00050763897  0.00026874559  2364.2045      
2083.7652      2083.7236      2038.2936      1.7163564      6.9524695      0.00050909485  0.00026936624  2364.0096      
2083.9176      2083.8759      2038.4459      1.7174232      6.9521647      0.00050823208  0.00026899826  2383.6527      
2084.0700      2084.0283      2038.5983      1.71849        6.9518599      0.00050625415  0.00026815427  2382.3135      
2084.2224      2084.1807      2038.7507      1.7195568      6.9515551      0.00050216112  0.00026640298  2383.5624      
2084.3748      2084.3331      2038.9031      1.7206236      6.9512503      0.00049541569  0.00026350981  2397.4688      
2084.5272      2084.4855      2039.0555      1.7216904      6.9509455      0.00048994568  0.00026115541  2417.9388      
2084.6796      2084.6379      2039.2079      1.7227572      6.9506408      0.00048313686  0.00025820866  2390.0695      
2084.8320      2084.7903      2039.3603      1.723824       6.950336       0.00047305801  0.0002538359   2413.0002      
2084.9844      2084.9427      2039.5127      1.7248908      6.9500312      0.00046747293  0.00025139739  2444.2918      
2085.1368      2085.0951      2039.6651      1.7259576      6.9497264      0.00045610153  0.00024640413  2479.937       
2085.2892      2085.2475      2039.8175      1.7270244      6.9494216      0.00044847577  0.00024304332  2506.022       
2085.4416      2085.3999      2039.9699      1.7280912      6.9491168      0.00044058074  0.00023953678  2512.4299      
2085.5940      2085.5523      2040.1223      1.729158       6.948812       0.00042814096  0.00023398322  2537.8407      
2085.7464      2085.7047      2040.2747      1.7302248      6.9485072      0.00041642064  0.00022870959  2581.2208      
2085.8988      2085.8571      2040.4271      1.7312916      6.9482024      0.00040531384  0.00022367136  2623.9509      
2086.0512      2086.0095      2040.5795      1.7323584      6.9478976      0.0003959606   0.00021940798  2647.9799      
2086.2036      2086.1619      2040.7319      1.7334252      6.9475928      0.00039093834  0.00021710485  2678.2329      
2086.3560      2086.3143      2040.8843      1.734492       6.947288       0.00038915213  0.0002162839   2690.9291      
2086.5084      2086.4667      2041.0367      1.7355588      6.9469832      0.00038977795  0.00021657168  2669.1547      
2086.6608      2086.6191      2041.1891      1.7366256      6.9466784      0.00039159863  0.00021740831  2688.2724      
2086.8132      2086.7715      2041.3415      1.7376924      6.9463736      0.00039430736  0.0002186519   2658.6524      
2086.9656      2086.9239      2041.4939      1.7387592      6.9460688      0.00039572748  0.00021930286  2635.7317      
2087.1180      2087.0763      2041.6463      1.739826       6.945764       0.00039490714  0.00021892719  2640.708       
2087.2704      2087.2287      2041.7987      1.7408928      6.9454592      0.0003947774   0.00021886773  2645.0458      
2087.4228      2087.3811      2041.9511      1.7419596      6.9451544      0.00039658638  0.00021969575  2586.7722      
2087.5752      2087.5335      2042.1035      1.7430264      6.9448496      0.00039909378  0.00022084279  2550.1854      
2087.7276      2087.6859      2042.2559      1.7440932      6.9445448      0.00040840591  0.00022508026  2549.9435      
2087.8800      2087.8383      2042.4082      1.74516        6.94424        0.00041595665  0.00022850274  2587.036       
2088.0324      2087.9906      2042.5606      1.7462268      6.9439352      0.0004248796   0.00023252041  2616.5264      
2088.1848      2088.1430      2042.7130      1.7472936      6.9436304      0.00043666008  0.00023779285  2625.2062      
2088.3372      2088.2954      2042.8654      1.7483604      6.9433256      0.00044384584  0.00024099215  2613.9566      
2088.4896      2088.4478      2043.0178      1.7494272      6.9430208      0.00045177485  0.00024449638  2574.8065      
2088.6420      2088.6002      2043.1702      1.750494       6.942716       0.0004606228   0.00024839807  2536.4847      
