~VERSION INFORMATION
VERS.                  2.0 : CWLS LOG ASCII STANDARD VERSION 2.0
WRAP.                  NO  : DATA IS NOT WRAPPED
~Well Information Section
#MNEM.UNIT          VALUE/NAME                 DESCRIPTION
#----------------------------------------------------------------------
STRT.m                 158.9532 : START DEPTH
STOP.m                3049.2192 : STOP DEPTH
STEP.m                   0.1524 : STEP
NULL.                -999.25 : NULL VALUE
COMP.                                             : COMPANY
WELL.    Z-Zim-1                                  : WELL
FLD .                                             : FIELD
LOC .             500001,       6637623.6         : LOCATION
CNTY.                                             : COUNTY
STAT.                                             : STATE
CTRY.                                             : COUNTRY
SRVC.    Fugro-Jason                              : SERVICE
DATE.                                             : DATE
API .                                             : API
~Curve Information Section
#MNEM.UNIT          API CODE                   DESCRIPTION
#----------------------------------------------------------------------
DEPTH.m                          : * MD (TRACK/INDEX)
TVD  .m                          : * TVD (TRACK/INDEX)
TVDSS.m                          : * TVDSS (TRACK/INDEX)
DX   .m                          : TRACK DELTA X-COORD
DY   .m                          : TRACK DELTA Y-COORD
DTS  .s/m                        : S-SONIC
DT   .s/m                        : P-SONIC
RHOB .kg/m^3                     : DENSITY
~Parameter Information Section
#MNEM.UNIT          API CODE                   DESCRIPTION
#----------------------------------------------------------------------
XCRD .m                500001.000            : WELL POSITION X-COORD
YCRD .m                6637623.600           : WELL POSITION Y-COORD
DATUM.m                45.430                : WELL DATUM
~Other Information Section
#----------------------------------------------------------------------
# Data exported from JGW, (C) Fugro-Jason, 2011
# Input file: 02_WELL/Z-Zim-1.wll
#----------------------------------------------------------------------
~A DEPTH        TVD            TVDSS          DELTAX         DELTAY         DTS            DT             RHOB           
# ...
352.9584       352.9546       307.5246       -0.4729584     1.2107088      -999.25        0.000588266    2003.1214      
353.1108       353.1070       307.6770       -0.4731108     1.2117756      -999.25        0.000588266    2012.9588      
353.2632       353.2594       307.8294       -0.4732632     1.2128424      -999.25        0.000588266    2023.1797      
353.4156       353.4118       307.9818       -0.4734156     1.2139092      -999.25        0.00058817112  2010.1562      
353.5680       353.5642       308.1342       -0.473568      1.214976       -999.25        0.00058762957  2046.3313      
353.7204       353.7166       308.2866       -0.4737204     1.2160428      -999.25        0.00058616341  2029.1322      
353.8728       353.8690       308.4390       -0.4738728     1.2171096      -999.25        0.0005848548   2024.1355      
354.0252       354.0214       308.5914       -0.47402519    1.2181764      -999.25        0.00058362836  2045.2788      
354.1776       354.1738       308.7438       -0.47417759    1.2192432      -999.25        0.00058332232  2047.1656      
354.3300       354.3262       308.8962       -0.47432999    1.22031        -999.25        0.00058268721  2076.1784      
354.4824       354.4786       309.0486       -0.47448239    1.2213768      -999.25        0.0005819407   2069.1886      
354.6348       354.6310       309.2010       -0.47463479    1.2224436      -999.25        0.00058108149  2038.1245      
354.7872       354.7834       309.3534       -0.47478719    1.2235104      -999.25        0.00058077305  2045.179       
354.9396       354.9358       309.5058       -0.47493959    1.2245772      -999.25        0.00058014067  2035.7383      
355.0920       355.0882       309.6582       -0.47509199    1.225644       -999.25        0.00057853986  2033.6814      
355.2444       355.2406       309.8106       -0.47524439    1.2267108      -999.25        0.00057600883  2029.5624      
355.3968       355.3930       309.9630       -0.47539679    1.2277776      -999.25        0.00057330603  2014.3976      
355.5492       355.5454       310.1154       -0.47554919    1.2288444      -999.25        0.00057157994  2039.1856      
355.7016       355.6978       310.2678       -0.47570159    1.2299112      -999.25        0.00057091934  2033.5244      
355.8540       355.8502       310.4202       -0.47585399    1.230978       -999.25        0.000570743    2024.3554      
356.0064       356.0026       310.5725       -0.47600639    1.2320448      -999.25        0.00057083408  2040.6696      
356.1588       356.1549       310.7249       -0.47615879    1.2331116      -999.25        0.00057145764  2044.0236      
356.3112       356.3073       310.8773       -0.47631119    1.2341784      -999.25        0.00057347541  2061.0917      
356.4636       356.4597       311.0297       -0.47646359    1.2352452      -999.25        0.00057592263  2074.8503      
356.6160       356.6121       311.1821       -0.47661599    1.236312       -999.25        0.00057873483  2068.2709      
356.7684       356.7645       311.3345       -0.47676839    1.2373788      -999.25        0.00058013703  2011.2282      
356.9208       356.9169       311.4869       -0.47692079    1.2384456      -999.25        0.00058064933  2018.7717      
357.0732       357.0693       311.6393       -0.47707319    1.2395124      -999.25        0.00058075599  2033.6783      
357.2256       357.2217       311.7917       -0.47722559    1.2405792      -999.25        0.00058075599  2033.8799      
357.3780       357.3741       311.9441       -0.47737799    1.241646       -999.25        0.00058075599  2014.1983      
357.5304       357.5265       312.0965       -0.47753039    1.2427128      -999.25        0.00058075599  2029.8612      
357.6828       357.6789       312.2489       -0.47768279    1.2437796      -999.25        0.00058114602  2032.1033      
357.8352       357.8313       312.4013       -0.47783519    1.2448464      -999.25        0.00058221072  2021.6983      
357.9876       357.9837       312.5537       -0.47798759    1.2459132      -999.25        0.00058383803  2024.9692      
358.1400       358.1361       312.7061       -0.47813999    1.24698        -999.25        0.00058514215  2020.1366      
358.2924       358.2885       312.8585       -0.47829239    1.2480468      -999.25        0.00058516877  2026.9857      
358.4448       358.4409       313.0109       -0.47844479    1.2491136      -999.25        0.00058420147  2032.9648      
358.5972       358.5933       313.1633       -0.47859719    1.2501804      -999.25        0.00058251001  2015.822       
358.7496       358.7457       313.3157       -0.47874959    1.2512472      -999.25        0.00058129118  2017.6144      
358.9020       358.8981       313.4681       -0.47890199    1.252314       -999.25        0.00058084946  2017.1306      
359.0544       359.0505       313.6205       -0.47905439    1.2533808      -999.25        0.00058102395  2010.5236      
359.2068       359.2029       313.7729       -0.47920679    1.2544476      -999.25        0.00058202295  1994.497       
359.3592       359.3553       313.9253       -0.47935919    1.2555144      -999.25        0.00058369532  1988.1643      
359.5116       359.5077       314.0777       -0.47951159    1.2565812      -999.25        0.0005850161   2036.7671      
359.6640       359.6600       314.2300       -0.47966399    1.257648       -999.25        0.00058533756  2102.3768      
359.8164       359.8124       314.3824       -0.47981639    1.2587148      -999.25        0.0005843576   2153.3999      
359.9688       359.9648       314.5348       -0.47996879    1.2597816      -999.25        0.00058270662  2083.9493      
360.1212       360.1172       314.6872       -0.48036359    1.2604848      -999.25        0.000580643    2025.0182      
360.2736       360.2696       314.8396       -0.48082079    1.2610944      -999.25        0.00057890551  2005.5791      
360.4260       360.4220       314.9920       -0.48127799    1.261704       -999.25        0.00057696724  2004.9759      
360.5784       360.5744       315.1444       -0.48173519    1.2623136      -999.25        0.00057604793  1980.3214      
360.7308       360.7268       315.2968       -0.48219239    1.2629232      -999.25        0.00057658276  1995.3811      
360.8832       360.8792       315.4492       -0.48264959    1.2635328      -999.25        0.00057787053  2008.6955      
361.0356       361.0316       315.6016       -0.48310679    1.2641424      -999.25        0.00057987157  2011.7021      
361.1880       361.1840       315.7540       -0.48356399    1.264752       -999.25        0.00058164216  1997.7509      
361.3404       361.3364       315.9064       -0.48402119    1.2653616      -999.25        0.00058285132  2029.7234      
361.4928       361.4888       316.0588       -0.48447839    1.2659712      -999.25        0.00058322838  2031.1354      
361.6452       361.6412       316.2112       -0.48493559    1.2665808      -999.25        0.00058299911  2018.9678      
361.7976       361.7936       316.3636       -0.48539279    1.2671904      -999.25        0.00058195433  2031.165       
361.9500       361.9460       316.5160       -0.48584999    1.2678         -999.25        0.00058016539  2054.6557      
362.1024       362.0984       316.6684       -0.48630719    1.2684096      -999.25        0.00057824113  2033.9638      
362.2548       362.2508       316.8208       -0.48676439    1.2690192      -999.25        0.00057701504  2005.2898      
362.4072       362.4032       316.9732       -0.48722159    1.2696288      -999.25        0.00057712991  2009.009       
362.5596       362.5556       317.1256       -0.48767879    1.2702384      -999.25        0.00057800837  2056.1458      
362.7120       362.7080       317.2780       -0.48813599    1.270848       -999.25        0.00057826913  2067.6192      
362.8644       362.8604       317.4304       -0.48859319    1.2714576      -999.25        0.00057864792  2052.2759      
363.0168       363.0128       317.5828       -0.48905039    1.2720672      -999.25        0.00057985922  2014.5749      
