~VERSION INFORMATION
VERS.                  2.0 : CWLS LOG ASCII STANDARD VERSION 2.0
WRAP.                  NO  : DATA IS NOT WRAPPED
~Well Information Section
#MNEM.UNIT          VALUE/NAME                 DESCRIPTION
#----------------------------------------------------------------------
STRT.m                 158.9532 : START DEPTH
STOP.m                3049.2192 : STOP DEPTH
STEP.m                   0.1524 : STEP
NULL.                -999.25 : NULL VALUE
COMP.                                             : COMPANY
WELL.    Z-Zim-1                                  : WELL
FLD .                                             : FIELD
LOC .             500001,       6637623.6         : LOCATION
CNTY.                                             : COUNTY
STAT.                                             : STATE
CTRY.                                             : COUNTRY
SRVC.    Fugro-Jason                              : SERVICE
DATE.                                             : DATE
API .                                             : API
~Curve Information Section
#MNEM.UNIT          API CODE                   DESCRIPTION
#----------------------------------------------------------------------
DEPTH.m                          : * MD (TRACK/INDEX)
TVD  .m                          : * TVD (TRACK/INDEX)
TVDSS.m                          : * TVDSS (TRACK/INDEX)
DX   .m                          : TRACK DELTA X-COORD
DY   .m                          : TRACK DELTA Y-COORD
DTS  .s/m                        : S-SONIC
DT   .s/m                        : P-SONIC
RHOB .kg/m^3                     : DENSITY
~Parameter Information Section
#MNEM.UNIT          API CODE                   DESCRIPTION
#----------------------------------------------------------------------
XCRD .m                500001.000            : WELL POSITION X-COORD
YCRD .m                6637623.600           : WELL POSITION Y-COORD
DATUM.m                45.430                : WELL DATUM
~Other Information Section
#----------------------------------------------------------------------
# Data exported from JGW, (C) Fugro-Jason, 2011
# Input file: 02_WELL/Z-Zim-1.wll
#----------------------------------------------------------------------
~A DEPTH        TVD            TVDSS          DELTAX         DELTAY         DTS            DT             RHOB           
# ...
2272.5888      2272.5434      2227.1134      2.772944       7.0348223      0.00053929239  0.00025264932  2301.3338      
2272.7412      2272.6958      2227.2658      2.773706       7.0345175      0.00054796146  0.00025703294  2307.6159      
2272.8936      2272.8482      2227.4182      2.774468       7.0342127      0.00055609631  0.00025929854  2304.541       
2273.0460      2273.0006      2227.5706      2.77523        7.0339079      0.00056475563  0.00026096835  2294.9128      
2273.1984      2273.1530      2227.7230      2.775992       7.0336031      0.00057345784  0.00026295016  2309.6158      
2273.3508      2273.3054      2227.8754      2.776754       7.0332983      0.00058242862  0.0002631603   2334.629       
2273.5032      2273.4578      2228.0278      2.777516       7.0329935      0.000590405    0.00026306592  2352.7017      
2273.6556      2273.6102      2228.1802      2.778278       7.0326887      0.00059665033  0.00026303257  2354           
2273.8080      2273.7626      2228.3326      2.77904        7.0323839      0.00060059371  0.00026313324  2376.1184      
2273.9604      2273.9150      2228.4850      2.779802       7.0320791      0.00060164441  0.00026314199  2394.5804      
2274.1128      2274.0674      2228.6374      2.780564       7.0317743      0.00060119663  0.0002627561   2403.8895      
2274.2652      2274.2198      2228.7898      2.781326       7.0314695      0.00060107744  0.00026254708  2448.0837      
2274.4176      2274.3722      2228.9422      2.782088       7.0311647      0.00060239169  0.00026271835  2430.5032      
2274.5700      2274.5245      2229.0945      2.78285        7.0308599      0.0006050497   0.00026282626  2425.2391      
2274.7224      2274.6769      2229.2469      2.783612       7.0305551      0.00060738038  0.00026252101  2446.869       
2274.8748      2274.8293      2229.3993      2.784374       7.0302503      0.00060870271  0.00026147084  2423.0371      
2275.0272      2274.9817      2229.5517      2.785136       7.0299455      0.00060996212  0.00025935217  2435.7837      
2275.1796      2275.1341      2229.7041      2.785898       7.0296407      0.00061165941  0.00025798968  2423.824       
2275.3320      2275.2865      2229.8565      2.78666        7.0293359      0.00061195421  0.00025772999  2381.6012      
2275.4844      2275.4389      2230.0089      2.787422       7.0290311      0.0006108853   0.00025772999  2355.1775      
2275.6368      2275.5913      2230.1613      2.788184       7.0287263      0.00060876418  0.00025791704  2358.388       
2275.7892      2275.7437      2230.3137      2.788946       7.0284215      0.00060704104  0.00025876269  2379.9667      
2275.9416      2275.8961      2230.4661      2.789708       7.0281167      0.00060510534  0.00026077352  2404.9532      
2276.0940      2276.0485      2230.6185      2.79047        7.0278119      0.00060265418  0.00026227425  2408.6414      
2276.2464      2276.2009      2230.7709      2.791232       7.0275071      0.00059981034  0.00026312599  2411.5284      
2276.3988      2276.3533      2230.9233      2.791994       7.0272023      0.00059742853  0.00026295562  2403.1459      
2276.5512      2276.5057      2231.0757      2.792756       7.0268975      0.0005955495   0.00026197593  2386.9891      
2276.7036      2276.6581      2231.2281      2.793518       7.0265927      0.00059474183  0.00026007416  2365.4455      
2276.8560      2276.8105      2231.3805      2.79428        7.0262879      0.0005954956   0.00025839621  2339.0254      
2277.0084      2276.9629      2231.5329      2.795042       7.0259831      0.00059882296  0.00025772441  2321.2085      
2277.1608      2277.1153      2231.6853      2.795804       7.0256783      0.00060264127  0.00025771341  2316.7284      
2277.3132      2277.2677      2231.8377      2.796566       7.0253735      0.00060588484  0.00025794384  2323.93        
2277.4656      2277.4201      2231.9901      2.797328       7.0250687      0.00060820076  0.00025903222  2331.2544      
2277.6180      2277.5725      2232.1425      2.79809        7.0247639      0.00061033124  0.00026210921  2304.4973      
2277.7704      2277.7249      2232.2949      2.798852       7.0244591      0.00061198366  0.00026651301  2279.2979      
2277.9228      2277.8773      2232.4473      2.799614       7.0241543      0.00061120627  0.000271677    2263.8768      
2278.0752      2278.0297      2232.5997      2.800376       7.0238495      0.00060892797  0.00027506053  2263.0469      
2278.2276      2278.1821      2232.7521      2.801138       7.0235447      0.00060471493  0.00027786408  2269.3866      
2278.3800      2278.3345      2232.9045      2.8019         7.0232399      0.0006011382   0.00027928641  2284.4213      
2278.5324      2278.4869      2233.0568      2.8026619      7.0229351      0.00059774091  0.00027844307  2316.0962      
2278.6848      2278.6392      2233.2092      2.8034239      7.0226303      0.00059559664  0.0002759924   2353.8644      
2278.8372      2278.7916      2233.3616      2.8041859      7.0223255      0.00059426749  0.00027202844  2397.9897      
2278.9896      2278.9440      2233.5140      2.8049479      7.0220207      0.00059472179  0.0002684366   2379.4535      
2279.1420      2279.0964      2233.6664      2.8057099      7.0217159      0.00059577813  0.00026623819  2328.4252      
2279.2944      2279.2488      2233.8188      2.8064719      7.0214111      0.00059615     0.00026559485  2307.6575      
2279.4468      2279.4012      2233.9712      2.8072339      7.0211063      0.00059548613  0.00026581066  2281.208       
2279.5992      2279.5536      2234.1236      2.8079959      7.0208015      0.00059307407  0.00026650779  2289.825       
2279.7516      2279.7060      2234.2760      2.8087579      7.0204967      0.00059039737  0.00026568167  2330.5697      
2279.9040      2279.8584      2234.4284      2.8095199      7.0201919      0.00058826364  0.00026429737  2395.9939      
2280.0564      2280.0108      2234.5808      2.8103383      7.0200563      0.00058680909  0.00026313818  2403.5524      
2280.2088      2280.1632      2234.7332      2.8112527      7.0202087      0.00058607582  0.00026227986  2377.441       
2280.3612      2280.3156      2234.8856      2.8121671      7.0203611      0.00058601302  0.0002602075   2348.2817      
2280.5136      2280.4680      2235.0380      2.8130815      7.0205135      0.0005877016   0.0002572231   2333.2635      
2280.6660      2280.6204      2235.1904      2.8139959      7.0206659      0.00058954792  0.00025544912  2356.6244      
2280.8184      2280.7728      2235.3428      2.8149103      7.0208183      0.00059160523  0.00025509861  2406.4882      
2280.9708      2280.9252      2235.4952      2.8158247      7.0209707      0.00059449104  0.00025503568  2428.8911      
2281.1232      2281.0776      2235.6476      2.8167391      7.0211231      0.00059725144  0.000255024    2409.3367      
2281.2756      2281.2300      2235.8000      2.8176535      7.0212755      0.00059883214  0.00025533946  2341.8574      
2281.4280      2281.3824      2235.9524      2.8185679      7.0214279      0.00060050176  0.00025644731  2297.794       
2281.5804      2281.5348      2236.1048      2.8194823      7.0215803      0.0006034142   0.00025845896  2291.3298      
2281.7328      2281.6872      2236.2572      2.8203967      7.0217327      0.00060868119  0.00026072268  2305.63        
2281.8852      2281.8396      2236.4096      2.8213111      7.0218851      0.00061242609  0.0002617992   2311.1191      
2282.0376      2281.9920      2236.5620      2.8222255      7.0220375      0.00061629054  0.00026191999  2315.1711      
2282.1900      2282.1444      2236.7144      2.8231399      7.0221899      0.00062145027  0.00026082168  2329.1323      
2282.3424      2282.2968      2236.8668      2.8240543      7.0223423      0.00062830659  0.00025962094  2358.405       
2282.4948      2282.4492      2237.0192      2.8249687      7.0224947      0.0006295373   0.00025810238  2399.5737      
2282.6472      2282.6016      2237.1716      2.8258831      7.0226471      0.00062444025  0.00025585646  2390.2742      
