~VERSION INFORMATION
VERS.                  2.0 : CWLS LOG ASCII STANDARD VERSION 2.0
WRAP.                  NO  : DATA IS NOT WRAPPED
~Well Information Section
#MNEM.UNIT          VALUE/NAME                 DESCRIPTION
#----------------------------------------------------------------------
STRT.m                 158.9532 : START DEPTH
STOP.m                3049.2192 : STOP DEPTH
STEP.m                   0.1524 : STEP
NULL.                -999.25 : NULL VALUE
COMP.                                             : COMPANY
WELL.    Z-Zim-1                                  : WELL
FLD .                                             : FIELD
LOC .             500001,       6637623.6         : LOCATION
CNTY.                                             : COUNTY
STAT.                                             : STATE
CTRY.                                             : COUNTRY
SRVC.    Fugro-Jason                              : SERVICE
DATE.                                             : DATE
API .                                             : API
~Curve Information Section
#MNEM.UNIT          API CODE                   DESCRIPTION
#----------------------------------------------------------------------
DEPTH.m                          : * MD (TRACK/INDEX)
TVD  .m                          : * TVD (TRACK/INDEX)
TVDSS.m                          : * TVDSS (TRACK/INDEX)
DX   .m                          : TRACK DELTA X-COORD
DY   .m                          : TRACK DELTA Y-COORD
DTS  .s/m                        : S-SONIC
DT   .s/m                        : P-SONIC
RHOB .kg/m^3                     : DENSITY
~Parameter Information Section
#MNEM.UNIT          API CODE                   DESCRIPTION
#----------------------------------------------------------------------
XCRD .m                500001.000            : WELL POSITION X-COORD
YCRD .m                6637623.600           : WELL POSITION Y-COORD
DATUM.m                45.430                : WELL DATUM
~Other Information Section
#----------------------------------------------------------------------
# Data exported from JGW, (C) Fugro-Jason, 2011
# Input file: 02_WELL/Z-Zim-1.wll
#----------------------------------------------------------------------
~A DEPTH        TVD            TVDSS          DELTAX         DELTAY         DTS            DT             RHOB           
# ...
1884.5784      1884.5411      1839.1111      1.7908432      6.7708433      0.00070115862  0.00033041641  2457.6103      
1884.7308      1884.6935      1839.2635      1.7905384      6.7705385      0.00069930361  0.00032985224  2452.6516      
1884.8832      1884.8459      1839.4159      1.7902336      6.7702337      0.00069738624  0.00032926637  2514.7309      
1885.0356      1884.9983      1839.5683      1.7899288      6.7699289      0.00069518818  0.0003285908   2474.7879      
1885.1880      1885.1507      1839.7207      1.789624       6.7696241      0.00069332556  0.00032801432  2449.6175      
1885.3404      1885.3030      1839.8730      1.7893192      6.7693193      0.00069302699  0.000327922    2456.7016      
1885.4928      1885.4554      1840.0254      1.7890144      6.7690145      0.00069182522  0.00032754673  2499.586       
1885.6452      1885.6078      1840.1778      1.7887096      6.7687097      0.00068974581  0.00032689542  2513.545       
1885.7976      1885.7602      1840.3302      1.7884048      6.7684049      0.0006877523   0.00032626694  2484.8592      
1885.9500      1885.9126      1840.4826      1.7881         6.7681001      0.00068569716  0.00032561437  2461.0852      
1886.1024      1886.0650      1840.6350      1.7877952      6.7677953      0.00068509899  0.00032542399  2492.2286      
1886.2548      1886.2174      1840.7874      1.7874904      6.7674905      0.00068509899  0.00032542399  2495           
1886.4072      1886.3698      1840.9398      1.7871856      6.7671857      0.00068509899  0.00032542399  2502.4527      
1886.5596      1886.5222      1841.0922      1.7868808      6.7668809      0.00068509899  0.00032542399  2512.4676      
1886.7120      1886.6746      1841.2446      1.786576       6.7665761      0.00068509899  0.00032542399  2521.4917      
1886.8644      1886.8270      1841.3970      1.7862712      6.7662713      0.00068509899  0.00032542399  2511.5159      
1887.0168      1886.9794      1841.5494      1.7859664      6.7659665      0.00068509899  0.00032542399  2451.4872      
1887.1692      1887.1318      1841.7018      1.7856616      6.7656617      0.00068509899  0.00032542399  2428.0842      
1887.3216      1887.2842      1841.8542      1.7853568      6.7653569      0.00068509899  0.00032542399  2453.7741      
1887.4740      1887.4366      1842.0066      1.785052       6.7650521      0.00068509899  0.00032542399  2445.7922      
1887.6264      1887.5890      1842.1590      1.7847472      6.7647473      0.00068548766  0.00032554769  2462.7246      
1887.7788      1887.7414      1842.3114      1.7844424      6.7644425      0.00068734391  0.00032613791  2466.7386      
1887.9312      1887.8938      1842.4638      1.7841376      6.7641377      0.00068956899  0.00032683952  2455.6949      
1888.0836      1888.0462      1842.6162      1.7838328      6.7638329      0.00069036899  0.00032709201  2445.5478      
1888.2360      1888.1986      1842.7686      1.783528       6.7635281      0.00068989023  0.00032694091  2494.1054      
1888.3884      1888.3510      1842.9210      1.7832232      6.7632233      0.00068779821  0.00032628088  2486.295       
1888.5408      1888.5034      1843.0734      1.7829184      6.7629185      0.00068391854  0.00032504341  2456.8014      
1888.6932      1888.6558      1843.2258      1.7826136      6.7626137      0.0006813035   0.00032420252  2493.8608      
1888.8456      1888.8082      1843.3782      1.7823088      6.7623089      0.00067989301  0.000323746    2512.5962      
1888.9980      1888.9606      1843.5306      1.782004       6.7620041      0.00068009869  0.00032381255  2486.9637      
1889.1504      1889.1130      1843.6830      1.7816992      6.7616993      0.00068189261  0.00032439334  2467.9844      
1889.3028      1889.2654      1843.8354      1.7813944      6.7613945      0.00068114061  0.00032414977  2503.0358      
1889.4552      1889.4178      1843.9878      1.7810896      6.7610897      0.00067856454  0.00032330979  2494.317       
1889.6076      1889.5702      1844.1402      1.7807848      6.7607849      0.0006745652   0.00032199397  2469.0758      
1889.7600      1889.7226      1844.2926      1.78048        6.7604801      0.0006707857   0.00032073191  2475.4992      
1889.9124      1889.8750      1844.4450      1.7801752      6.7601753      0.00067419627  0.00032186661  2547.1792      
1890.0648      1890.0274      1844.5974      1.7799352      6.7599353      0.00068108635  0.00032366479  2611.7781      
1890.2172      1890.1798      1844.7498      1.7797828      6.7597829      0.00069080581  0.00032603018  2511.4443      
1890.3696      1890.3322      1844.9022      1.7796304      6.7596305      0.00069661709  0.00032954043  2434.8284      
1890.5220      1890.4846      1845.0546      1.779478       6.7594781      0.0007007453   0.00033203927  2416.8769      
1890.6744      1890.6370      1845.2070      1.7793256      6.7593257      0.00070366159  0.00033376036  2381.3444      
1890.8268      1890.7894      1845.3594      1.7791732      6.7591733      0.00070653902  0.000335435    2375.332       
1890.9792      1890.9418      1845.5118      1.7790208      6.7590209      0.00070667038  0.00033550887  2393.9257      
1891.1316      1891.0942      1845.6642      1.7788684      6.7588685      0.00071164473  0.00033830782  2433.6882      
1891.2840      1891.2466      1845.8166      1.778716       6.7587161      0.00071700381  0.00034125169  2460.33        
1891.4364      1891.3990      1845.9690      1.7785636      6.7585637      0.00072049521  0.00034313662  2447.7123      
1891.5888      1891.5514      1846.1214      1.7784112      6.7584113      0.0007168697   0.00034116696  2461.3794      
1891.7412      1891.7038      1846.2738      1.7782588      6.7582589      0.00073051015  0.00034822856  2477.5311      
1891.8936      1891.8562      1846.4262      1.7781064      6.7581065      0.00074404721  0.00035489473  2435.8571      
1892.0460      1892.0086      1846.5786      1.777954       6.7579541      0.00074681261  0.00035611545  2419.4658      
1892.1984      1892.1610      1846.7310      1.7778016      6.7578017      0.00072682644  0.00034637768  2415.0212      
1892.3508      1892.3134      1846.8834      1.7776492      6.7576493      0.00072701771  0.00034655296  2406.0384      
1892.5032      1892.4658      1847.0358      1.7774968      6.7574969      0.00072870631  0.00034742087  2384.273       
1892.6556      1892.6182      1847.1882      1.7773444      6.7573445      0.00073588799  0.000350884    2401.1412      
1892.8080      1892.7706      1847.3406      1.777192       6.7571921      0.00075294896  0.00035907171  2389.2883      
1892.9604      1892.9230      1847.4930      1.7770396      6.7570397      0.00074966245  0.0003575936   2386.8023      
1893.1128      1893.0754      1847.6454      1.7768872      6.7568873      0.00073541659  0.00035066026  2417.3069      
1893.2652      1893.2278      1847.7978      1.7767348      6.7567349      0.00072930617  0.00034770304  2415.1282      
1893.4176      1893.3802      1847.9502      1.7765824      6.7565825      0.00073544383  0.00035079656  2412.5194      
1893.5700      1893.5326      1848.1026      1.77643        6.7564301      0.00073271934  0.00034944525  2402.9913      
1893.7224      1893.6850      1848.2550      1.7762776      6.7562776      0.00073397663  0.00035007255  2385.3269      
1893.8748      1893.8374      1848.4074      1.7761252      6.7561252      0.00073220009  0.00034916815  2385.0956      
1894.0272      1893.9898      1848.5598      1.7759728      6.7559728      0.00072727802  0.00034668492  2403.8318      
1894.1796      1894.1422      1848.7122      1.7758204      6.7558204      0.00073102307  0.00034858889  2431.9311      
1894.3320      1894.2946      1848.8646      1.775668       6.755668       0.00072344392  0.00034466141  2474.9737      
1894.4844      1894.4470      1849.0170      1.7755156      6.7555156      0.00071927428  0.00034249421  2512.5341      
1894.6368      1894.5994      1849.1694      1.7753632      6.7553632      0.00072095449  0.0003433535   2468.2595      
