~VERSION INFORMATION
VERS.                  2.0 : CWLS LOG ASCII STANDARD VERSION 2.0
WRAP.                  NO  : DATA IS NOT WRAPPED
~Well Information Section
#MNEM.UNIT          VALUE/NAME                 DESCRIPTION
#----------------------------------------------------------------------
STRT.m                 158.9532 : START DEPTH
STOP.m                3049.2192 : STOP DEPTH
STEP.m                   0.1524 : STEP
NULL.                -999.25 : NULL VALUE
COMP.                                             : COMPANY
WELL.    Z-Zim-1                                  : WELL
FLD .                                             : FIELD
LOC .             500001,       6637623.6         : LOCATION
CNTY.                                             : COUNTY
STAT.                                             : STATE
CTRY.                                             : COUNTRY
SRVC.    Fugro-Jason                              : SERVICE
DATE.                                             : DATE
API .                                             : API
~Curve Information Section
#MNEM.UNIT          API CODE                   DESCRIPTION
#----------------------------------------------------------------------
DEPTH.m                          : * MD (TRACK/INDEX)
TVD  .m                          : * TVD (TRACK/INDEX)
TVDSS.m                          : * TVDSS (TRACK/INDEX)
DX   .m                          : TRACK DELTA X-COORD
DY   .m                          : TRACK DELTA Y-COORD
DTS  .s/m                        : S-SONIC
DT   .s/m                        : P-SONIC
RHOB .kg/m^3                     : DENSITY
~Parameter Information Section
#MNEM.UNIT          API CODE                   DESCRIPTION
#----------------------------------------------------------------------
XCRD .m                500001.000            : WELL POSITION X-COORD
YCRD .m                6637623.600           : WELL POSITION Y-COORD
DATUM.m                45.430                : WELL DATUM
~Other Information Section
#----------------------------------------------------------------------
# Data exported from JGW, (C) Fugro-Jason, 2011
# Input file: 02_WELL/Z-Zim-1.wll
#----------------------------------------------------------------------
~A DEPTH        TVD            TVDSS          DELTAX         DELTAY         DTS            DT             RHOB           
# ...
3038.3988      3037.5091      2992.0791      24.217554      9.1535053      0.00041561902  0.00022835308  2499.9514      
3038.5512      3037.6609      2992.2309      24.223497      9.1655449      0.00041794076  0.00022940148  2506.4436      
3038.7036      3037.8127      2992.3827      24.229441      9.1775845      0.00042130505  0.00023091717  2515.7791      
3038.8560      3037.9645      2992.5345      24.235385      9.1896241      0.00042408844  0.00023217003  2515.4158      
3039.0084      3038.1163      2992.6863      24.241328      9.2016637      0.00042461426  0.00023271178  2515.8831      
3039.1608      3038.2682      2992.8382      24.247272      9.2137033      0.00041939879  0.0002325008   2503.5709      
3039.3132      3038.4200      2992.9900      24.253215      9.2257429      0.00041851343  0.00023144623  2468.501       
3039.4656      3038.5718      2993.1418      24.259159      9.2377825      0.00042241304  0.00022978987  2448.7337      
3039.6180      3038.7236      2993.2936      24.265103      9.2498221      0.00043174381  0.0002268171   2415.6041      
3039.7704      3038.8754      2993.4454      24.271046      9.2618617      0.00043688601  0.00022308985  2408.1716      
3039.9228      3039.0272      2993.5972      24.27699       9.2739013      0.00044102583  0.00021853327  2427.7012      
3040.0752      3039.1790      2993.7490      24.279173      9.2867681      0.00044634323  0.00021547757  2418.3117      
3040.2276      3039.3307      2993.9007      24.277497      9.3004841      0.00045636018  0.00021286856  2458.7074      
3040.3800      3039.4825      2994.0525      24.275821      9.3142001      0.00046656515  0.00021142783  2481.9646      
3040.5324      3039.6343      2994.2043      24.274144      9.3279161      0.00046919095  0.00021133936  2472.2212      
3040.6848      3039.7861      2994.3561      24.272468      9.3416321      0.00046142186  0.00021306837  2413.5645      
3040.8372      3039.9378      2994.5078      24.270791      9.3553481      0.00044638007  0.00021628302  2392.3755      
3040.9896      3040.0896      2994.6596      24.269115      9.3690641      0.00043739451  0.00021861475  2370.6175      
3041.1420      3040.2414      2994.8114      24.267439      9.3827801      0.00043488685  0.00021847125  2346.6413      
3041.2944      3040.3932      2994.9632      24.265762      9.3964961      0.00043214175  0.00021691036  2344.5504      
3041.4468      3040.5449      2995.1149      24.264086      9.4102121      0.00042909435  0.0002142942   2398.0224      
3041.5992      3040.6967      2995.2667      24.262409      9.4239281      0.00042811075  0.0002107486   2442.7535      
3041.7516      3040.8485      2995.4185      24.260733      9.437644       0.00042837582  0.0002063897   2459.0059      
3041.9040      3041.0003      2995.5703      24.259057      9.45136        0.0004289734   0.00020274451  2439.9421      
3042.0564      3041.1520      2995.7220      24.25738       9.465076       0.00042901854  0.00020015052  2470.361       
3042.2088      3041.3038      2995.8738      24.255704      9.478792       0.00042691329  0.00019863241  2482.2351      
3042.3612      3041.4556      2996.0256      24.254027      9.492508       0.00041949599  0.00019790773  2481.8278      
3042.5136      3041.6074      2996.1774      24.252351      9.506224       0.00041209645  0.000197742    2478.6114      
3042.6660      3041.7591      2996.3291      24.250675      9.51994        0.00040757954  0.00019763119  2492.2605      
3042.8184      3041.9109      2996.4809      24.248998      9.533656       0.00040548261  0.00019725     2500.9986      
3042.9708      3042.0627      2996.6327      24.247322      9.547372       0.00040523581  0.00019663063  2495.37        
3043.1232      3042.2145      2996.7845      24.245645      9.561088       0.00040699361  0.0001967432   2477.4004      
3043.2756      3042.3662      2996.9362      24.243969      9.574804       0.00040788148  0.00019716852  2482.1465      
3043.4280      3042.5180      2997.0880      24.242292      9.58852        0.00040683665  0.00019768321  2482.7079      
3043.5804      3042.6698      2997.2398      24.240616      9.602236       0.00040239844  0.00019740162  2473.2076      
3043.7328      3042.8216      2997.3916      24.23894       9.615952       0.00039892511  0.00019674931  2458.1435      
3043.8852      3042.9733      2997.5433      24.237263      9.629668       0.00039826434  0.00019664741  2455.6233      
3044.0376      3043.1251      2997.6951      24.235587      9.643384       0.00039972526  0.00019705023  2442.9726      
3044.1900      3043.2769      2997.8469      24.23391       9.6571         0.00040264674  0.00019765097  2462.328       
3044.3424      3043.4287      2997.9987      24.232234      9.6708159      0.00040508668  0.000197742    2513.5383      
3044.4948      3043.5804      2998.1504      24.230558      9.6845319      0.00040639318  0.00019792444  2564.2392      
3044.6472      3043.7322      2998.3022      24.228881      9.6982479      0.00040825978  0.0001985069   2503.9954      
3044.7996      3043.8840      2998.4540      24.227205      9.7119639      0.00041279759  0.00019984013  2495.904       
3044.9520      3044.0358      2998.6058      24.225528      9.7256799      0.00041911013  0.00020166061  2502.0549      
3045.1044      3044.1875      2998.7575      24.223852      9.7393959      0.00042415627  0.00020359259  2475.6296      
3045.2568      3044.3393      2998.9093      24.222176      9.7531119      0.00042759159  0.00020545378  2491.6855      
3045.4092      3044.4911      2999.0611      24.220499      9.7668279      0.00042977756  0.00020742767  2486.9233      
3045.5616      3044.6429      2999.2129      24.218823      9.7805439      0.00043182425  0.00020925037  2469.9376      
3045.7140      3044.7946      2999.3646      24.217146      9.7942599      0.00043362926  0.00021126327  2450.5689      
3045.8664      3044.9464      2999.5164      24.21547       9.8079759      0.00043443855  0.00021292854  2469.1815      
3046.0188      3045.0982      2999.6682      24.213794      9.8216919      0.00043469547  0.00021453844  2457.5153      
3046.1712      3045.2500      2999.8200      24.212117      9.8354079      0.00043637449  0.00021542415  2438.6546      
3046.3236      3045.4017      2999.9717      24.210441      9.8491239      0.00044248594  0.00021672565  2424.4616      
3046.4760      3045.5535      3000.1235      24.208764      9.8628399      0.00046352     0.00021814772  2435.6705      
3046.6284      3045.7053      3000.2753      24.207088      9.8765559      0.00049888302  0.00022018393  2432.8469      
3046.7808      3045.8571      3000.4271      24.205411      9.8902719      0.00049888302  0.00022165397  2434.6641      
3046.9332      3046.0088      3000.5788      24.203735      9.9039878      0.00049888302  0.00022305612  2433.181       
3047.0856      3046.1606      3000.7306      24.202059      9.9177038      0.00049888302  0.00022472413  2404.3669      
3047.2380      3046.3124      3000.8824      24.200382      9.9314198      0.00049888302  0.00022713963  2387.3762      
3047.3904      3046.4642      3001.0342      24.198706      9.9451358      0.00049888302  0.00022955378  2389.9672      
3047.5428      3046.6159      3001.1859      24.197029      9.9588518      0.00049888302  0.0002316297   2397.3722      
3047.6952      3046.7677      3001.3377      24.195353      9.9725678      0.00049888302  0.00023367246  2392.4554      
3047.8476      3046.9195      3001.4895      24.193677      9.9862838      0.00049888302  0.00023610211  2398.4414      
3048.0000      3047.0713      3001.6413      24.192         9.9999998      0.00049888302  0.00023891837  2404.8278      
3048.1524      3047.2230      3001.7930      24.190324      10.013716      0.00049888302  0.00024152124  2403.7073      
3048.3048      3047.3748      3001.9448      24.188647      10.027432      0.00049888302  0.00024365879  2390.6376      
3048.4572      3047.5266      3002.0966      24.186971      10.041148      0.00049888302  0.00024551588  2385.2206      
