~VERSION INFORMATION
VERS.                  2.0 : CWLS LOG ASCII STANDARD VERSION 2.0
WRAP.                  NO  : DATA IS NOT WRAPPED
~Well Information Section
#MNEM.UNIT          VALUE/NAME                 DESCRIPTION
#----------------------------------------------------------------------
STRT.m                 158.9532 : START DEPTH
STOP.m                3049.2192 : STOP DEPTH
STEP.m                   0.1524 : STEP
NULL.                -999.25 : NULL VALUE
COMP.                                             : COMPANY
WELL.    Z-Zim-1                                  : WELL
FLD .                                             : FIELD
LOC .             500001,       6637623.6         : LOCATION
CNTY.                                             : COUNTY
STAT.                                             : STATE
CTRY.                                             : COUNTRY
SRVC.    Fugro-Jason                              : SERVICE
DATE.                                             : DATE
API .                                             : API
~Curve Information Section
#MNEM.UNIT          API CODE                   DESCRIPTION
#----------------------------------------------------------------------
DEPTH.m                          : * MD (TRACK/INDEX)
TVD  .m                          : * TVD (TRACK/INDEX)
TVDSS.m                          : * TVDSS (TRACK/INDEX)
DX   .m                          : TRACK DELTA X-COORD
DY   .m                          : TRACK DELTA Y-COORD
DTS  .s/m                        : S-SONIC
DT   .s/m                        : P-SONIC
RHOB .kg/m^3                     : DENSITY
~Parameter Information Section
#MNEM.UNIT          API CODE                   DESCRIPTION
#----------------------------------------------------------------------
XCRD .m                500001.000            : WELL POSITION X-COORD
YCRD .m                6637623.600           : WELL POSITION Y-COORD
DATUM.m                45.430                : WELL DATUM
~Other Information Section
#----------------------------------------------------------------------
# Data exported from JGW, (C) Fugro-Jason, 2011
# Input file: 02_WELL/Z-Zim-1.wll
#----------------------------------------------------------------------
~A DEPTH        TVD            TVDSS          DELTAX         DELTAY         DTS            DT             RHOB           
# ...
2650.3884      2650.2624      2604.8324      9.4258261      8.2484468      0.0005643297   0.00031112063  2501.1526      
2650.5408      2650.4148      2604.9848      9.4281121      8.2478372      0.00056543678  0.00031477825  2499.5711      
2650.6932      2650.5672      2605.1372      9.430398       8.2472276      0.00056809531  0.00031578918  2497.2938      
2650.8456      2650.7196      2605.2896      9.432684       8.246618       0.00057107882  0.00031516568  2495.4922      
2650.9980      2650.8720      2605.4420      9.43497        8.2460084      0.00057085965  0.0003136467   2495.9735      
2651.1504      2651.0244      2605.5944      9.437256       8.2453988      0.00056652307  0.00031377559  2498.9137      
2651.3028      2651.1767      2605.7467      9.439542       8.2447892      0.00055927893  0.00031507163  2504.384       
2651.4552      2651.3291      2605.8991      9.441828       8.2441796      0.00055661201  0.00031682006  2505           
2651.6076      2651.4815      2606.0515      9.444114       8.24357        0.0005609772   0.00031834827  2509.1854      
2651.7600      2651.6339      2606.2039      9.4464         8.2429604      0.00054307126  0.00031749778  2515.3532      
2651.9124      2651.7863      2606.3563      9.448686       8.2423508      0.00053763546  0.00031337035  2522.1021      
2652.0648      2651.9386      2606.5086      9.450972       8.2417412      0.00053960263  0.00030840953  2519.825       
2652.2172      2652.0910      2606.6610      9.453258       8.2411316      0.00054647654  0.00030215406  2515.0568      
2652.3696      2652.2434      2606.8134      9.455544       8.240522       0.00055476747  0.00029619157  2510.077       
2652.5220      2652.3958      2606.9658      9.45783        8.2399124      0.00055778305  0.00028958804  2507.3402      
2652.6744      2652.5482      2607.1182      9.460116       8.2393028      0.00055647973  0.00028635268  2508           
2652.8268      2652.7005      2607.2705      9.462402       8.2386932      0.00055391874  0.00028506672  2507.6995      
2652.9792      2652.8529      2607.4229      9.464688       8.2380836      0.00056028937  0.00028389944  2506.2656      
2653.1316      2653.0053      2607.5753      9.466974       8.237474       0.00055753399  0.00028219211  2505.6466      
2653.2840      2653.1577      2607.7277      9.46926        8.2368644      0.00055864379  0.00028256422  2505.0666      
2653.4364      2653.3101      2607.8801      9.4715459      8.2362548      0.00056078929  0.00028428941  2506.4014      
2653.5888      2653.4625      2608.0325      9.4738319      8.2356452      0.00055203895  0.00028478598  2508.7041      
2653.7412      2653.6148      2608.1848      9.4761179      8.2350356      0.00055310742  0.000284865    2509.4202      
2653.8936      2653.7672      2608.3372      9.4784039      8.234426       0.00056127189  0.00028669658  2503.9133      
2654.0460      2653.9196      2608.4896      9.4806899      8.2338164      0.000565061    0.00029048933  2504.4738      
2654.1984      2654.0720      2608.6420      9.4829759      8.2332068      0.00055127942  0.00029584116  2506.138       
2654.3508      2654.2244      2608.7944      9.4852619      8.2325972      0.00056002298  0.00030168456  2506.1175      
2654.5032      2654.3767      2608.9467      9.4875479      8.2319876      0.000563676    0.00029396016  2501.2551      
2654.6556      2654.5291      2609.0991      9.4898339      8.231378       0.0005645769   0.00029264398  2500           
2654.8080      2654.6815      2609.2515      9.4921199      8.2307684      0.00056659204  0.00029347574  2498.8939      
2654.9604      2654.8339      2609.4039      9.4944059      8.2301588      0.00056644262  0.00029341409  2500.1748      
2655.1128      2654.9863      2609.5563      9.4966919      8.2295492      0.0005568653   0.0002894449   2505.9769      
2655.2652      2655.1386      2609.7086      9.4989779      8.2289396      0.00054810906  0.00028581051  2513.0569      
2655.4176      2655.2910      2609.8610      9.5012639      8.22833        0.00054278614  0.00028358864  2518.437       
2655.5700      2655.4434      2610.0134      9.5035499      8.2277204      0.0005385466   0.00028181416  2518.139       
2655.7224      2655.5958      2610.1658      9.5058359      8.2271108      0.00054511501  0.00028455886  2512.4371      
2655.8748      2655.7482      2610.3182      9.5081219      8.2265012      0.00055638267  0.00028927375  2499.9407      
2656.0272      2655.9006      2610.4706      9.5104078      8.2258916      0.00057139395  0.00027448646  2487.569       
2656.1796      2656.0529      2610.6229      9.5126938      8.225282       0.0005742331   0.00030304563  2475.6988      
2656.3320      2656.2053      2610.7753      9.5149798      8.2246724      0.00059845635  0.00032843584  2465.6653      
2656.4844      2656.3577      2610.9277      9.5172658      8.2240628      0.00058270756  0.00034679933  2477.6988      
2656.6368      2656.5101      2611.0801      9.5195518      8.2234532      0.00054466873  0.00036289268  2498.5094      
2656.7892      2656.6625      2611.2325      9.5218378      8.2228436      0.00055307559  0.00036783566  2560.5559      
2656.9416      2656.8148      2611.3848      9.5241238      8.222234       0.00056541407  0.00036278175  2415.9471      
2657.0940      2656.9672      2611.5372      9.5264098      8.2216244      0.00056633332  0.00035514525  2270.7356      
2657.2464      2657.1196      2611.6896      9.5286958      8.2210148      0.00055992535  0.00034488049  2193.5733      
2657.3988      2657.2720      2611.8420      9.5309818      8.2204052      0.00054873073  0.00032997366  2262.9489      
2657.5512      2657.4244      2611.9944      9.5332678      8.2197956      0.00051774911  0.00030661828  2436.8057      
2657.7036      2657.5768      2612.1468      9.5355538      8.219186       0.00049213271  0.00027766781  2591.2626      
2657.8560      2657.7291      2612.2991      9.5378398      8.2185764      0.00048075058  0.0002540039   2678.7442      
2658.0084      2657.8815      2612.4515      9.5401258      8.2179668      0.00048952857  0.00024357396  2673.3968      
2658.1608      2658.0339      2612.6039      9.5424118      8.2173572      0.00050741196  0.00024735295  2619.1988      
2658.3132      2658.1863      2612.7563      9.5446978      8.2167476      0.00053382742  0.00025820758  2436.5165      
2658.4656      2658.3387      2612.9087      9.5469838      8.216138       0.00055252394  0.00027398435  2292.0751      
2658.6180      2658.4910      2613.0610      9.5492697      8.2155284      0.0005620218   0.00030211819  2220.1294      
2658.7704      2658.6434      2613.2134      9.5515557      8.2149188      0.00056510539  0.00033745719  2168.4724      
2658.9228      2658.7958      2613.3658      9.5538417      8.2143092      0.00056485992  0.0003837469   2177.9925      
2659.0752      2658.9482      2613.5182      9.5561277      8.2136996      0.00056779387  0.00042223316  2162.6117      
2659.2276      2659.1006      2613.6706      9.5584137      8.21309        0.00057428986  0.00046969204  2103.388       
2659.3800      2659.2529      2613.8229      9.5606997      8.2124804      0.00057199572  0.00051310614  2084.7071      
2659.5324      2659.4053      2613.9753      9.5629857      8.2118708      0.00055462552  0.00055935375  2140.0809      
2659.6848      2659.5577      2614.1277      9.5652717      8.2112612      0.00054129959  0.00058199442  2220.7376      
2659.8372      2659.7101      2614.2801      9.5675577      8.2106516      0.00053009704  0.0005878168   2318.728       
2659.9896      2659.8625      2614.4325      9.5698437      8.210042       0.00052107246  0.00057244198  2386.8629      
2660.1420      2660.0149      2614.5849      9.5717037      8.2095744      0.00051591321  0.00054256381  2540.0413      
2660.2944      2660.1672      2614.7372      9.5735325      8.2091172      0.00053190014  0.00050446167  2507.9994      
2660.4468      2660.3196      2614.8896      9.5753613      8.20866        0.00055542842  0.0004612686   2378.2175      
