~VERSION INFORMATION
VERS.                  2.0 : CWLS LOG ASCII STANDARD VERSION 2.0
WRAP.                  NO  : DATA IS NOT WRAPPED
~Well Information Section
#MNEM.UNIT          VALUE/NAME                 DESCRIPTION
#----------------------------------------------------------------------
STRT.m                 158.9532 : START DEPTH
STOP.m                3049.2192 : STOP DEPTH
STEP.m                   0.1524 : STEP
NULL.                -999.25 : NULL VALUE
COMP.                                             : COMPANY
WELL.    Z-Zim-1                                  : WELL
FLD .                                             : FIELD
LOC .             500001,       6637623.6         : LOCATION
CNTY.                                             : COUNTY
STAT.                                             : STATE
CTRY.                                             : COUNTRY
SRVC.    Fugro-Jason                              : SERVICE
DATE.                                             : DATE
API .                                             : API
~Curve Information Section
#MNEM.UNIT          API CODE                   DESCRIPTION
#----------------------------------------------------------------------
DEPTH.m                          : * MD (TRACK/INDEX)
TVD  .m                          : * TVD (TRACK/INDEX)
TVDSS.m                          : * TVDSS (TRACK/INDEX)
DX   .m                          : TRACK DELTA X-COORD
DY   .m                          : TRACK DELTA Y-COORD
DTS  .s/m                        : S-SONIC
DT   .s/m                        : P-SONIC
RHOB .kg/m^3                     : DENSITY
~Parameter Information Section
#MNEM.UNIT          API CODE                   DESCRIPTION
#----------------------------------------------------------------------
XCRD .m                500001.000            : WELL POSITION X-COORD
YCRD .m                6637623.600           : WELL POSITION Y-COORD
DATUM.m                45.430                : WELL DATUM
~Other Information Section
#----------------------------------------------------------------------
# Data exported from JGW, (C) Fugro-Jason, 2011
# Input file: 02_WELL/Z-Zim-1.wll
#----------------------------------------------------------------------
~A DEPTH        TVD            TVDSS          DELTAX         DELTAY         DTS            DT             RHOB           
# ...
546.9636       546.9575       501.5275       -0.26910919    1.9078544      -999.25        0.00046390086  1825.4566      
547.1160       547.1099       501.6799       -0.26865199    1.908464       -999.25        0.00046300397  1848.2169      
547.2684       547.2623       501.8323       -0.26819479    1.9090736      -999.25        0.00046256076  1842.8356      
547.4208       547.4147       501.9847       -0.26773759    1.9096832      -999.25        0.0004615398   1814.9038      
547.5732       547.5671       502.1371       -0.26728039    1.9102928      -999.25        0.00046076327  1825.5943      
547.7256       547.7195       502.2895       -0.26682319    1.9109024      -999.25        0.0004607111   1817.5182      
547.8780       547.8719       502.4419       -0.26636599    1.911512       -999.25        0.00046144364  1819.2966      
548.0304       548.0243       502.5943       -0.26590879    1.9121216      -999.25        0.00046389006  1833.5587      
548.1828       548.1767       502.7467       -0.26545159    1.9127312      -999.25        0.00046895     1839.7727      
548.3352       548.3291       502.8991       -0.26499439    1.9133408      -999.25        0.00047754525  1843.8585      
548.4876       548.4815       503.0515       -0.26453719    1.9139504      -999.25        0.0004855574   1843.3345      
548.6400       548.6339       503.2039       -0.26407999    1.91456        -999.25        0.00049416579  1841           
548.7924       548.7863       503.3563       -0.26362279    1.9151696      -999.25        0.00050127218  1839.9015      
548.9448       548.9387       503.5087       -0.26316559    1.9157792      -999.25        0.00050783989  1827.4802      
549.0972       549.0911       503.6611       -0.26270839    1.9163888      -999.25        0.00051149143  1833.7415      
549.2496       549.2435       503.8135       -0.26225119    1.9169984      -999.25        0.00051312785  1841.8952      
549.4020       549.3959       503.9659       -0.26179399    1.917608       -999.25        0.00051290886  1828.4949      
549.5544       549.5483       504.1183       -0.26133679    1.9182176      -999.25        0.00051214625  1820.6912      
549.7068       549.7007       504.2707       -0.26087959    1.9188272      -999.25        0.00051201299  1827.7256      
549.8592       549.8531       504.4231       -0.26042239    1.9194368      -999.25        0.00051228766  1829.1915      
550.0116       550.0055       504.5755       -0.25996519    1.920058       -999.25        0.0005124623   1814.7112      
550.1640       550.1579       504.7279       -0.25950799    1.92082        -999.25        0.00051054531  1817.1301      
550.3164       550.3103       504.8803       -0.25905079    1.921582       -999.25        0.0005071148   1830.2266      
550.4688       550.4627       505.0327       -0.25859359    1.922344       -999.25        0.00050450711  1831.3852      
550.6212       550.6151       505.1851       -0.25813639    1.923106       -999.25        0.00050244108  1816.8974      
550.7736       550.7675       505.3375       -0.25767919    1.923868       -999.25        0.00050070794  1819.4037      
550.9260       550.9199       505.4899       -0.25722199    1.92463        -999.25        0.00049908588  1817.2848      
551.0784       551.0723       505.6423       -0.25676479    1.925392       -999.25        0.00049939994  1819.5222      
551.2308       551.2247       505.7947       -0.25630759    1.926154       -999.25        0.00050139121  1832.2409      
551.3832       551.3771       505.9471       -0.25585039    1.926916       -999.25        0.00050269199  1857.1767      
551.5356       551.5295       506.0994       -0.25539319    1.927678       -999.25        0.0005020882   1852.1854      
551.6880       551.6818       506.2518       -0.25493599    1.92844        -999.25        0.00050118849  1840.3428      
551.8404       551.8342       506.4042       -0.25447879    1.929202       -999.25        0.00050015028  1831.357       
551.9928       551.9866       506.5566       -0.25402159    1.929964       -999.25        0.00049906082  1838.3836      
552.1452       552.1390       506.7090       -0.25356439    1.930726       -999.25        0.00049756698  1832.3187      
552.2976       552.2914       506.8614       -0.25310719    1.931488       -999.25        0.00049788017  1812.5359      
552.4500       552.4438       507.0138       -0.25264999    1.93225        -999.25        0.00049949701  1798.2127      
552.6024       552.5962       507.1662       -0.25219279    1.933012       -999.25        0.00050161981  1810.6805      
552.7548       552.7486       507.3186       -0.25173559    1.933774       -999.25        0.00050161334  1832.083       
552.9072       552.9010       507.4710       -0.25127839    1.934536       -999.25        0.00050035738  1823.5545      
553.0596       553.0534       507.6234       -0.25082119    1.935298       -999.25        0.00049945305  1807.5459      
553.2120       553.2058       507.7758       -0.25036399    1.93606        -999.25        0.00049973016  1797.5883      
553.3644       553.3582       507.9282       -0.2499068     1.936822       -999.25        0.00050059294  1785.8565      
553.5168       553.5106       508.0806       -0.2494496     1.937584       -999.25        0.00050173229  1818.343       
553.6692       553.6630       508.2330       -0.2489924     1.938346       -999.25        0.00050307613  1824.8887      
553.8216       553.8154       508.3854       -0.2485352     1.939108       -999.25        0.00050510121  1795.0749      
553.9740       553.9678       508.5378       -0.248078      1.93987        -999.25        0.00050659752  1816.7041      
554.1264       554.1202       508.6902       -0.2476208     1.940632       -999.25        0.00050664138  1835.6194      
554.2788       554.2726       508.8426       -0.2471636     1.941394       -999.25        0.00050561409  1837.0157      
554.4312       554.4250       508.9950       -0.2467064     1.942156       -999.25        0.0005035672   1826.1974      
554.5836       554.5774       509.1474       -0.2462492     1.942918       -999.25        0.00050197295  1823.1804      
554.7360       554.7298       509.2998       -0.245792      1.94368        -999.25        0.00050094842  1832.0479      
554.8884       554.8822       509.4522       -0.2453348     1.944442       -999.25        0.00050073882  1832.5421      
555.0408       555.0346       509.6046       -0.2448776     1.945204       -999.25        0.00050098833  1820.376       
555.1932       555.1870       509.7570       -0.2444204     1.945966       -999.25        0.00050121452  1797.353       
555.3456       555.3394       509.9094       -0.2439632     1.946728       -999.25        0.00049906194  1794.395       
555.4980       555.4918       510.0618       -0.243506      1.94749        -999.25        0.00049449819  1807.656       
555.6504       555.6442       510.2142       -0.2430488     1.948252       -999.25        0.00048890437  1819.1522      
555.8028       555.7966       510.3666       -0.2425916     1.949014       -999.25        0.00048394057  1813.2276      
555.9552       555.9490       510.5190       -0.2421344     1.949776       -999.25        0.0004810172   1809.8422      
556.1076       556.1014       510.6714       -0.2416772     1.950538       -999.25        0.00047882792  1828.8252      
556.2600       556.2538       510.8238       -0.24122       1.9512999      -999.25        0.00047710912  1834.8507      
556.4124       556.4062       510.9762       -0.2407628     1.9520619      -999.25        0.000475737    1810.9406      
556.5648       556.5586       511.1286       -0.2403056     1.9528239      -999.25        0.0004757862   1823.4554      
556.7172       556.7110       511.2810       -0.2398484     1.9535859      -999.25        0.00047660034  1814.9364      
556.8696       556.8634       511.4334       -0.2393912     1.9543479      -999.25        0.00047747913  1826.8092      
557.0220       557.0158       511.5858       -0.238934      1.9551099      -999.25        0.00047858282  1866.311       
