~VERSION INFORMATION
VERS.                  2.0 : CWLS LOG ASCII STANDARD VERSION 2.0
WRAP.                  NO  : DATA IS NOT WRAPPED
~Well Information Section
#MNEM.UNIT          VALUE/NAME                 DESCRIPTION
#----------------------------------------------------------------------
STRT.m                 158.9532 : START DEPTH
STOP.m                3049.2192 : STOP DEPTH
STEP.m                   0.1524 : STEP
NULL.                -999.25 : NULL VALUE
COMP.                                             : COMPANY
WELL.    Z-Zim-1                                  : WELL
FLD .                                             : FIELD
LOC .             500001,       6637623.6         : LOCATION
CNTY.                                             : COUNTY
STAT.                                             : STATE
CTRY.                                             : COUNTRY
SRVC.    Fugro-Jason                              : SERVICE
DATE.                                             : DATE
API .                                             : API
~Curve Information Section
#MNEM.UNIT          API CODE                   DESCRIPTION
#----------------------------------------------------------------------
DEPTH.m                          : * MD (TRACK/INDEX)
TVD  .m                          : * TVD (TRACK/INDEX)
TVDSS.m                          : * TVDSS (TRACK/INDEX)
DX   .m                          : TRACK DELTA X-COORD
DY   .m                          : TRACK DELTA Y-COORD
DTS  .s/m                        : S-SONIC
DT   .s/m                        : P-SONIC
RHOB .kg/m^3                     : DENSITY
~Parameter Information Section
#MNEM.UNIT          API CODE                   DESCRIPTION
#----------------------------------------------------------------------
XCRD .m                500001.000            : WELL POSITION X-COORD
YCRD .m                6637623.600           : WELL POSITION Y-COORD
DATUM.m                45.430                : WELL DATUM
~Other Information Section
#----------------------------------------------------------------------
# Data exported from JGW, (C) Fugro-Jason, 2011
# Input file: 02_WELL/Z-Zim-1.wll
#----------------------------------------------------------------------
~A DEPTH        TVD            TVDSS          DELTAX         DELTAY         DTS            DT             RHOB           
# ...
1690.5732      1690.5381      1645.1081      2.5565607      6.7722927      0.00061874499  0.00031540301  2411.1335      
1690.7256      1690.6905      1645.2605      2.5556463      6.7729023      0.00062032082  0.00031596371  2387.2529      
1690.8780      1690.8429      1645.4129      2.5547319      6.7735119      0.00062193953  0.00031653737  2371.1704      
1691.0304      1690.9953      1645.5653      2.5538175      6.7741215      0.00062429663  0.00031736824  2325.1982      
1691.1828      1691.1477      1645.7177      2.5529031      6.7747311      0.00062762412  0.0003185346   2322.3193      
1691.3352      1691.3001      1645.8701      2.5519888      6.7753407      0.00062821002  0.00031874     2356.9537      
1691.4876      1691.4525      1646.0225      2.5510744      6.7759503      0.00062821002  0.00031874     2390.8259      
1691.6400      1691.6049      1646.1749      2.55016        6.7765599      0.00062821002  0.00031874     2401.417       
1691.7924      1691.7573      1646.3273      2.5492456      6.7771695      0.00062835747  0.00031879118  2386.7139      
1691.9448      1691.9097      1646.4797      2.5483312      6.7777791      0.00062996498  0.00031934972  2353.6413      
1692.0972      1692.0621      1646.6321      2.5474168      6.7783887      0.00063295633  0.00032038294  2318.5341      
1692.2496      1692.2145      1646.7845      2.5465024      6.7789983      0.00063608792  0.00032145963  2335.0777      
1692.4020      1692.3669      1646.9369      2.545588       6.7796079      0.0006379301   0.00032208877  2354.4749      
1692.5544      1692.5193      1647.0892      2.5446736      6.7802175      0.00063983594  0.00032273674  2372.3468      
1692.7068      1692.6716      1647.2416      2.5437592      6.7808271      0.00064036303  0.00032291599  2383.3439      
1692.8592      1692.8240      1647.3940      2.5428448      6.7814367      0.00064101159  0.0003231352   2349.4728      
1693.0116      1692.9764      1647.5464      2.5419304      6.7820463      0.00064301098  0.00032381024  2305.8771      
1693.1640      1693.1288      1647.6988      2.541016       6.7826559      0.00064478518  0.00032440678  2281.1597      
1693.3164      1693.2812      1647.8512      2.5401016      6.7832655      0.00064836166  0.00032560059  2279.3713      
1693.4688      1693.4336      1648.0036      2.5391872      6.7838751      0.00065111953  0.00032651732  2291.4573      
1693.6212      1693.5860      1648.1560      2.5382728      6.7844847      0.00065320778  0.00032720733  2319.5022      
1693.7736      1693.7384      1648.3084      2.5373584      6.7850943      0.00065500457  0.00032779821  2328.5342      
1693.9260      1693.8908      1648.4608      2.536444       6.7857039      0.00065538101  0.000327922    2321.3858      
1694.0784      1694.0432      1648.6132      2.5355296      6.7863135      0.00065449219  0.00032762972  2331.756       
1694.2308      1694.1956      1648.7656      2.5346152      6.7869231      0.00065238262  0.00032693505  2317.2542      
1694.3832      1694.3480      1648.9180      2.5337008      6.7875327      0.00065053772  0.0003263248   2314.6334      
1694.5356      1694.5004      1649.0704      2.5327864      6.7881423      0.00064677983  0.00032507339  2322           
1694.6880      1694.6528      1649.2228      2.531872       6.7887519      0.00064426213  0.00032423076  2322.5892      
1694.8404      1694.8052      1649.3752      2.5309576      6.7893615      0.0006417803   0.00032339402  2320.5153      
1694.9928      1694.9576      1649.5276      2.5300432      6.7899711      0.00063826468  0.00032220213  2329.0427      
1695.1452      1695.1100      1649.6800      2.5291288      6.7905807      0.00063611313  0.00032146822  2339.1525      
1695.2976      1695.2624      1649.8324      2.5282144      6.7911903      0.00063428537  0.00032084135  2334.8226      
1695.4500      1695.4148      1649.9848      2.5273         6.7917999      0.00063302601  0.00032040899  2320.587       
1695.6024      1695.5672      1650.1372      2.5263856      6.7924095      0.00063302601  0.00032040899  2319.0937      
1695.7548      1695.7196      1650.2896      2.5254712      6.7930191      0.00063302601  0.00032040899  2326.5966      
1695.9072      1695.8720      1650.4420      2.5245568      6.7936287      0.00063302601  0.00032040899  2344.819       
1696.0596      1696.0244      1650.5944      2.5236424      6.7942383      0.00063302601  0.00032040899  2379.644       
1696.2120      1696.1768      1650.7468      2.522728       6.7948479      0.00063302601  0.00032040899  2378.309       
1696.3644      1696.3292      1650.8992      2.5218136      6.7954575      0.00063302601  0.00032040899  2370           
1696.5168      1696.4816      1651.0516      2.5208992      6.7960671      0.00063302601  0.00032040899  2367.2869      
1696.6692      1696.6339      1651.2039      2.5199848      6.7966767      0.00062942431  0.00031915044  2357.5273      
1696.8216      1696.7863      1651.3563      2.5190704      6.7972863      0.00061946008  0.00031564996  2349.5163      
1696.9740      1696.9387      1651.5087      2.518156       6.7978959      0.00061159098  0.00031282083  2346.6881      
1697.1264      1697.0911      1651.6611      2.5172416      6.7985055      0.00058742896  0.00030363371  2339.2508      
1697.2788      1697.2435      1651.8135      2.5163272      6.7991151      0.00056948017  0.00029653291  2302.2621      
1697.4312      1697.3959      1651.9659      2.5154128      6.7997247      0.0005544087   0.00029023119  2263.2001      
1697.5836      1697.5483      1652.1183      2.5144984      6.8003343      0.0005468424   0.00028691117  2267.0977      
1697.7360      1697.7007      1652.2707      2.513584       6.8009439      0.00055052666  0.00028854301  2323.7317      
1697.8884      1697.8531      1652.4231      2.5126696      6.8015535      0.00055691338  0.00029130602  2436.9058      
1698.0408      1698.0055      1652.5755      2.5117552      6.8021631      0.00056300454  0.00029390748  2553.5846      
1698.1932      1698.1579      1652.7279      2.5108408      6.8027727      0.0005645547   0.00029455547  2621.243       
1698.3456      1698.3103      1652.8803      2.5099264      6.8033823      0.00056750456  0.00029577974  2646.8873      
1698.4980      1698.4627      1653.0327      2.509012       6.8039919      0.0005695384   0.00029661914  2613.4109      
1698.6504      1698.6151      1653.1851      2.5080976      6.8046015      0.00057305019  0.00029804145  2549.8911      
1698.8028      1698.7675      1653.3375      2.5071832      6.8052111      0.00058098241  0.0003012235   2446.1202      
1698.9552      1698.9199      1653.4899      2.5062688      6.8058206      0.00058740861  0.00030374536  2354.997       
1699.1076      1699.0723      1653.6423      2.5053544      6.8064302      0.00060558233  0.00031052413  2311.8475      
1699.2600      1699.2247      1653.7947      2.50444        6.8070398      0.00062490923  0.00031754871  2273.6801      
1699.4124      1699.3771      1653.9471      2.5035256      6.8076494      0.00064038824  0.00032291375  2264           
1699.5648      1699.5295      1654.0995      2.5026112      6.808259       0.00064650312  0.00032497969  2273.7025      
1699.7172      1699.6819      1654.2519      2.5016968      6.8088686      0.00063876095  0.00032235302  2302.6285      
1699.8696      1699.8343      1654.4043      2.5007824      6.8094782      0.0006278183   0.00031857968  2330.8736      
1700.0220      1699.9867      1654.5567      2.49989        6.8100878      0.00061624636  0.00031450693  2337           
1700.1744      1700.1391      1654.7091      2.499128       6.8106974      0.00061448769  0.0003138758   2342.8299      
1700.3268      1700.2915      1654.8615      2.498366       6.811307       0.0006125302   0.00031316846  2355           
1700.4792      1700.4439      1655.0139      2.497604       6.8119166      0.00061180198  0.000312905    2354.9645      
1700.6316      1700.5963      1655.1663      2.496842       6.8125262      0.00061180198  0.000312905    2354           
