~VERSION INFORMATION
VERS.                  2.0 : CWLS LOG ASCII STANDARD VERSION 2.0
WRAP.                  NO  : DATA IS NOT WRAPPED
~Well Information Section
#MNEM.UNIT          VALUE/NAME                 DESCRIPTION
#----------------------------------------------------------------------
STRT.m                 158.9532 : START DEPTH
STOP.m                3049.2192 : STOP DEPTH
STEP.m                   0.1524 : STEP
NULL.                -999.25 : NULL VALUE
COMP.                                             : COMPANY
WELL.    Z-Zim-1                                  : WELL
FLD .                                             : FIELD
LOC .             500001,       6637623.6         : LOCATION
CNTY.                                             : COUNTY
STAT.                                             : STATE
CTRY.                                             : COUNTRY
SRVC.    Fugro-Jason                              : SERVICE
DATE.                                             : DATE
API .                                             : API
~Curve Information Section
#MNEM.UNIT          API CODE                   DESCRIPTION
#----------------------------------------------------------------------
DEPTH.m                          : * MD (TRACK/INDEX)
TVD  .m                          : * TVD (TRACK/INDEX)
TVDSS.m                          : * TVDSS (TRACK/INDEX)
DX   .m                          : TRACK DELTA X-COORD
DY   .m                          : TRACK DELTA Y-COORD
DTS  .s/m                        : S-SONIC
DT   .s/m                        : P-SONIC
RHOB .kg/m^3                     : DENSITY
~Parameter Information Section
#MNEM.UNIT          API CODE                   DESCRIPTION
#----------------------------------------------------------------------
XCRD .m                500001.000            : WELL POSITION X-COORD
YCRD .m                6637623.600           : WELL POSITION Y-COORD
DATUM.m                45.430                : WELL DATUM
~Other Information Section
#----------------------------------------------------------------------
# Data exported from JGW, (C) Fugro-Jason, 2011
# Input file: 02_WELL/Z-Zim-1.wll
#----------------------------------------------------------------------
~A DEPTH        TVD            TVDSS          DELTAX         DELTAY         DTS            DT             RHOB           
158.9532       158.9518       113.5218       -0.17895321    0.46267239     -999.25        0.00058701501  -999.25        
159.1056       159.1042       113.6742       -0.17910561    0.46373919     -999.25        0.00058197226  -999.25        
159.2580       159.2566       113.8266       -0.17925801    0.46480599     -999.25        0.00057811527  -999.25        
159.4104       159.4090       113.9790       -0.17941041    0.46587279     -999.25        0.00057927454  -999.25        
159.5628       159.5614       114.1314       -0.17956281    0.46693959     -999.25        0.00057852632  -999.25        
159.7152       159.7138       114.2838       -0.17971521    0.46800639     -999.25        0.0005763781   -999.25        
159.8676       159.8662       114.4362       -0.17986761    0.46907319     -999.25        0.00057359593  -999.25        
160.0200       160.0186       114.5886       -0.17994001    0.47005999     -999.25        0.00056928486  -999.25        
160.1724       160.1710       114.7410       -0.17948281    0.47051719     -999.25        0.00056495574  -999.25        
160.3248       160.3234       114.8934       -0.17902561    0.47097439     -999.25        0.00056012403  -999.25        
160.4772       160.4758       115.0458       -0.17856841    0.47143159     -999.25        0.00055647101  -999.25        
160.6296       160.6282       115.1982       -0.17811121    0.47188879     -999.25        0.00055230347  -999.25        
160.7820       160.7806       115.3506       -0.17765401    0.47234599     -999.25        0.00054881548  -999.25        
160.9344       160.9330       115.5030       -0.17719681    0.47280319     -999.25        0.00054514288  -999.25        
161.0868       161.0854       115.6554       -0.17673961    0.47326039     -999.25        0.00054253859  -999.25        
161.2392       161.2378       115.8078       -0.17628241    0.4737176      -999.25        0.00054029088  -999.25        
161.3916       161.3902       115.9602       -0.17582521    0.4741748      -999.25        0.00053899277  -999.25        
161.5440       161.5426       116.1126       -0.17536801    0.474632       -999.25        0.00053835869  -999.25        
161.6964       161.6950       116.2649       -0.17491081    0.4750892      -999.25        0.00053820101  -999.25        
161.8488       161.8473       116.4173       -0.17445361    0.4755464      -999.25        0.00053820101  -999.25        
162.0012       161.9997       116.5697       -0.17399641    0.4760036      -999.25        0.00053825608  -999.25        
162.1536       162.1521       116.7221       -0.17353921    0.4764608      -999.25        0.00053867104  -999.25        
162.3060       162.3045       116.8745       -0.17308201    0.476918       -999.25        0.00053983956  -999.25        
162.4584       162.4569       117.0269       -0.17262481    0.4773752      -999.25        0.00054139304  -999.25        
162.6108       162.6093       117.1793       -0.17216761    0.4778324      -999.25        0.00054338522  -999.25        
162.7632       162.7617       117.3317       -0.17171041    0.4782896      -999.25        0.00054519343  -999.25        
162.9156       162.9141       117.4841       -0.17125321    0.4787468      -999.25        0.00054722025  -999.25        
163.0680       163.0665       117.6365       -0.17079601    0.479204       -999.25        0.00054879685  -999.25        
163.2204       163.2189       117.7889       -0.17033881    0.4796612      -999.25        0.00055015761  -999.25        
163.3728       163.3713       117.9413       -0.16988161    0.4801184      -999.25        0.00055060733  -999.25        
163.5252       163.5237       118.0937       -0.16942441    0.4805756      -999.25        0.00055113107  -999.25        
163.6776       163.6761       118.2461       -0.16896721    0.4810328      -999.25        0.00055200001  -999.25        
163.8300       163.8285       118.3985       -0.16851001    0.48149        -999.25        0.00055367405  -999.25        
163.9824       163.9809       118.5509       -0.16805281    0.4819472      -999.25        0.00055542443  -999.25        
164.1348       164.1333       118.7033       -0.16759561    0.4824044      -999.25        0.00055706214  -999.25        
164.2872       164.2857       118.8557       -0.16713841    0.4828616      -999.25        0.00055760099  -999.25        
164.4396       164.4381       119.0081       -0.16668121    0.4833188      -999.25        0.00055724006  -999.25        
164.5920       164.5905       119.1605       -0.16622401    0.48377601     -999.25        0.00055578795  -999.25        
164.7444       164.7429       119.3129       -0.16576681    0.48423321     -999.25        0.00055389197  -999.25        
164.8968       164.8953       119.4653       -0.16530961    0.48469041     -999.25        0.0005520214   -999.25        
165.0492       165.0477       119.6177       -0.16485241    0.48514761     -999.25        0.00055024733  -999.25        
165.2016       165.2001       119.7701       -0.16439521    0.48560481     -999.25        0.00054899135  -999.25        
165.3540       165.3525       119.9225       -0.16393801    0.48606201     -999.25        0.00054883899  -999.25        
165.5064       165.5049       120.0749       -0.16348081    0.48651921     -999.25        0.00054951837  -999.25        
165.6588       165.6573       120.2273       -0.16302361    0.48697641     -999.25        0.00055009098  -999.25        
165.8112       165.8097       120.3797       -0.16256641    0.48743361     -999.25        0.00054988776  -999.25        
165.9636       165.9621       120.5321       -0.16210921    0.48789081     -999.25        0.00054860578  -999.25        
166.1160       166.1145       120.6845       -0.16165201    0.48834801     -999.25        0.00054669879  -999.25        
166.2684       166.2669       120.8369       -0.16119481    0.48880521     -999.25        0.00054512514  -999.25        
166.4208       166.4193       120.9893       -0.16073761    0.48926241     -999.25        0.00054376306  -999.25        
166.5732       166.5717       121.1417       -0.16028041    0.48971961     -999.25        0.00054330109  -999.25        
166.7256       166.7241       121.2941       -0.15982321    0.49017681     -999.25        0.00054362264  -999.25        
166.8780       166.8765       121.4465       -0.15936601    0.49063401     -999.25        0.00054449439  -999.25        
167.0304       167.0289       121.5989       -0.15890881    0.49109121     -999.25        0.00054616634  -999.25        
167.1828       167.1813       121.7513       -0.15845161    0.49154841     -999.25        0.00054791983  -999.25        
167.3352       167.3337       121.9037       -0.15799441    0.49200561     -999.25        0.00054954264  -999.25        
167.4876       167.4861       122.0561       -0.15753721    0.49246281     -999.25        0.00055035376  -999.25        
167.6400       167.6385       122.2085       -0.15708001    0.49292002     -999.25        0.000550717    -999.25        
167.7924       167.7909       122.3609       -0.15662281    0.49337722     -999.25        0.00055067881  -999.25        
167.9448       167.9433       122.5133       -0.15616561    0.49383442     -999.25        0.00055026387  -999.25        
168.0972       168.0957       122.6657       -0.15570841    0.49429162     -999.25        0.00054918677  -999.25        
168.2496       168.2481       122.8181       -0.15525121    0.49474882     -999.25        0.00054759872  -999.25        
168.4020       168.4005       122.9705       -0.15479401    0.49520602     -999.25        0.00054573423  -999.25        
168.5544       168.5529       123.1229       -0.15433681    0.49566322     -999.25        0.00054425417  -999.25        
168.7068       168.7053       123.2753       -0.15387961    0.49612042     -999.25        0.0005434916   -999.25        
168.8592       168.8577       123.4277       -0.15342241    0.49657762     -999.25        0.00054337225  -999.25        
169.0116       169.0101       123.5801       -0.15296521    0.49703482     -999.25        0.00054395208  -999.25        
